[
	{
		"id": "2301",
		"name": "Huîtrerie Régis",
		"address": "3 rue Montfaucon",
		"city": "Paris",
		"mainCategory": "Restaurants",
		"editorial_rating": 5,
		"description": "Nappes blanches, lampes suspendues et Marennes-Oléron",
		"to_website": "https://www.timeout.fr/paris/restaurants/huitrerie-regis",
		"image_url": "https://media.timeout.com/images/100004583/image.jpg",
		"latitude": 48.852808,
		"longitude": 2.335891,
		"id_area": "Odéon"
	},
	{
		"id": "670836",
		"name": "Mokonuts",
		"address": "5 rue Saint-Bernard",
		"city": "Paris",
		"mainCategory": "Restaurants",
		"editorial_rating": 5,
		"description": "Bien plus qu'un coffee shop",
		"to_website": "https://www.timeout.fr/paris/restaurants/mokonuts",
		"image_url": "https://media.timeout.com/images/103819636/image.jpg",
		"latitude": 48.85082,
		"longitude": 2.381272,
		"id_area": "Charonne"
	},
	{
		"id": "736601",
		"name": "Tomo",
		"address": "11 rue Chabanais",
		"city": "Paris",
		"mainCategory": "Restaurants",
		"editorial_rating": 5,
		"description": "Salon de thé japonais pour découvrir les dorayakis.",
		"to_website": "https://www.timeout.fr/paris/restaurants/tomo",
		"image_url": "https://media.timeout.com/images/105149089/image.jpg",
		"latitude": 48.867597,
		"longitude": 2.336853,
		"id_area": "2e arrondissement"
	},
	{
		"id": "790144",
		"name": "G.A.G",
		"address": "3 rue Palestro",
		"city": "Paris",
		"mainCategory": "Bars",
		"editorial_rating": 5,
		"description": "Gras, Alcool, Gluten ! Un grand oui pour ce comptoir naturiste très lard de vivre",
		"to_website": "https://www.timeout.fr/paris/bars/g-a-g",
		"image_url": "https://media.timeout.com/images/105168119/image.jpg",
		"latitude": 48.864504,
		"longitude": 2.350845,
		"id_area": "2e arrondissement"
	},
	{
		"id": "136101",
		"name": "Soya",
		"address": "20 rue de la Pierre Levée",
		"city": "Paris",
		"mainCategory": "Restaurants",
		"editorial_rating": 5,
		"description": "L'un des meilleurs restos vegi-bio-vegan de Paris",
		"to_website": "https://www.timeout.fr/paris/restaurants/soya",
		"image_url": "https://media.timeout.com/images/105277825/image.jpg",
		"latitude": 48.868099,
		"longitude": 2.370186,
		"id_area": "Folie-Méricourt"
	},
	{
		"id": "801208",
		"name": "Maison Fabien Foenix",
		"address": "6 rue Descombes",
		"city": "Paris",
		"mainCategory": "Restaurants",
		"editorial_rating": 5,
		"description": "La pépite de la Porte de Champerret ! La glace artisanale, la vraie, la bonne, sous toutes ses formes.",
		"to_website": "https://www.timeout.fr/paris/restaurants/maison-fabien-foenix",
		"image_url": "https://media.timeout.com/images/105251365/image.jpg",
		"latitude": 48.884584,
		"longitude": 2.293232,
		"id_area": "Ternes"
	},
	{
		"id": "213079",
		"name": "Le Ruisseau",
		"address": "65 rue du Ruisseau",
		"city": "Paris",
		"mainCategory": "Restaurants",
		"editorial_rating": 5,
		"description": "Bun fait sur place deux fois par jour, viande issue de vaches Limousine élevées en plein air dans le Pas-de-Calais... Frites extra !",
		"to_website": "https://www.timeout.fr/paris/restaurants/le-ruisseau",
		"image_url": "https://media.timeout.com/images/101524257/image.jpg",
		"latitude": 48.89433,
		"longitude": 2.34066,
		"id_area": "Mairie du 18e"
	},
	{
		"id": "723394",
		"name": "Bonjour Vietnam",
		"address": "6 rue Thouin",
		"city": "Paris",
		"mainCategory": "Restaurants",
		"editorial_rating": 5,
		"description": "Bonjour les nems, bonjour le phô, bonjour le bonheur.",
		"to_website": "https://www.timeout.fr/paris/restaurants/bonjour-vietnam",
		"image_url": "https://media.timeout.com/images/103613242/image.jpg",
		"latitude": 48.845149,
		"longitude": 2.349441,
		"id_area": "Quartier latin"
	},
	{
		"id": "733592",
		"name": "Noglu (Paris 3e)",
		"address": "38 rue de Saintonge",
		"city": "Paris",
		"mainCategory": "Restaurants",
		"editorial_rating": 5,
		"description": "La troisième adresse Noglu (avec Tsuyoshi Miyazaki aux fourneaux) qui transformerait n'importe quel gourmet en un adepte du sans gluten.",
		"to_website": "https://www.timeout.fr/paris/restaurants/noglu-paris-3e",
		"image_url": "https://media.timeout.com/images/103686609/image.jpg",
		"latitude": 48.862659,
		"longitude": 2.36371,
		"id_area": "Le Marais"
	},
	{
		"id": "6517",
		"name": "Chez La Vieille",
		"address": "1 rue Bailleul",
		"city": "Paris",
		"mainCategory": "Restaurants",
		"editorial_rating": 5,
		"description": "Quand un chef américain remet les plats tradi français à l’honneur : ça envoie !",
		"to_website": "https://www.timeout.fr/paris/restaurants/chez-la-vieille",
		"image_url": "https://media.timeout.com/images/103670036/image.jpg",
		"latitude": 48.860915,
		"longitude": 2.342494,
		"id_area": "Les Halles"
	},
	{
		"id": "721293",
		"name": "Mesken Börek Salonu",
		"address": "15 rue de l’Echiquier",
		"city": "Paris",
		"mainCategory": "Restaurants",
		"editorial_rating": 5,
		"description": "On déguste des böreks dans cette boutique de poche où se mêlent Turcs et hipsters.",
		"to_website": "https://www.timeout.fr/paris/restaurants/mesken-boerek-salonu",
		"image_url": "https://media.timeout.com/images/103594842/image.jpg",
		"latitude": 48.871162,
		"longitude": 2.351822,
		"id_area": "Grands Boulevards"
	},
	{
		"id": "774415",
		"name": "Le Bien Venu",
		"address": "23 rue Buffault",
		"city": "Paris",
		"mainCategory": "Restaurants",
		"editorial_rating": 5,
		"description": "Table hôtelière au charme nippon.",
		"to_website": "https://www.timeout.fr/paris/restaurants/le-bien-venu",
		"image_url": "https://media.timeout.com/images/104699555/image.jpg",
		"latitude": 48.876196,
		"longitude": 2.34214,
		"id_area": "9e arrondissement"
	},
	{
		"id": "795460",
		"name": "Uncino",
		"address": "31 rue La Bruyère",
		"city": "Paris",
		"mainCategory": "Restaurants",
		"editorial_rating": 5,
		"description": "Enfin l'île d'Elbe débarque à Paris ! Cuisine toscane et vins nature d'Italie et du monde : bijou. Une Cucina Povera sans chichis et sincère",
		"to_website": "https://www.timeout.fr/paris/restaurants/uncino",
		"image_url": "https://media.timeout.com/images/105281084/image.jpg",
		"latitude": 48.879421,
		"longitude": 2.333861,
		"id_area": "Saint-Georges"
	},
	{
		"id": "670712",
		"name": "Shang Palace",
		"address": "10 avenue d'Iéna",
		"city": "Paris",
		"mainCategory": "Restaurants",
		"editorial_rating": 5,
		"description": "Le seul restaurant chinois étoilé français.",
		"to_website": "https://www.timeout.fr/paris/restaurants/shang-palace",
		"image_url": "https://media.timeout.com/images/103170786/image.jpg",
		"latitude": 48.863919,
		"longitude": 2.293356,
		"id_area": "Chaillot"
	},
	{
		"id": "708334",
		"name": "Fermier Gourmet",
		"address": "185 rue du Temple",
		"city": "Paris",
		"mainCategory": "Restaurants",
		"editorial_rating": 5,
		"description": "Un fast-food de campagne spécialisé dans la barquette.",
		"to_website": "https://www.timeout.fr/paris/restaurants/fermier-gourmet",
		"image_url": "https://media.timeout.com/images/103479092/image.jpg",
		"latitude": 48.865586,
		"longitude": 2.360116,
		"id_area": "Arts et Métiers"
	},
	{
		"id": "10179",
		"name": "Osteria Ferrara",
		"address": "7 rue de Dahomey",
		"city": "Paris",
		"mainCategory": "Restaurants",
		"editorial_rating": 5,
		"description": "Sublime trattoria.",
		"to_website": "https://www.timeout.fr/paris/restaurants/osteria-ferrara",
		"image_url": "https://media.timeout.com/images/103391951/image.jpg",
		"latitude": 48.851282,
		"longitude": 2.383292,
		"id_area": "Charonne"
	},
	{
		"id": "6179",
		"name": "Racines",
		"address": "8 passage des Panoramas",
		"city": "Paris",
		"mainCategory": "Restaurants",
		"editorial_rating": 5,
		"description": "Trattoria à la française",
		"to_website": "https://www.timeout.fr/paris/restaurants/racines",
		"image_url": "https://media.timeout.com/images/105123892/image.jpg",
		"latitude": 48.871243,
		"longitude": 2.341831,
		"id_area": "2e arrondissement"
	},
	{
		"id": "285419",
		"name": "Le Mellotron",
		"address": "6 rue Beaurepaire",
		"city": "Paris",
		"mainCategory": "Bars",
		"editorial_rating": 5,
		"description": "Unique à Paris : à la fois studio radio et bar, avec vins bio, bières artisanales, progra éclectique et pointue !",
		"to_website": "https://www.timeout.fr/paris/bars/le-mellotron",
		"image_url": "https://media.timeout.com/images/101795721/image.jpg",
		"latitude": 48.869334,
		"longitude": 2.363537,
		"id_area": "République"
	},
	{
		"id": "747389",
		"name": "Pascal le Glacier",
		"address": "17 Rue Bois le Vent",
		"city": "Paris",
		"mainCategory": "Restaurants",
		"editorial_rating": 5,
		"description": "Retour en enfance chez Pascal, roi du quartier depuis 1991 !",
		"to_website": "https://www.timeout.fr/paris/restaurants/pascal-le-glacier",
		"image_url": "https://media.timeout.com/images/103814308/image.jpg",
		"latitude": 48.857375,
		"longitude": 2.275139,
		"id_area": "16e arrondissement"
	},
	{
		"id": "723782",
		"name": "Chez Hipolène",
		"address": "73 rue Saint-Maur",
		"city": "Paris",
		"mainCategory": "Restaurants",
		"editorial_rating": 5,
		"description": "Comme à la maison : des plats réconfortants et du bon vin à prix doux.",
		"to_website": "https://www.timeout.fr/paris/restaurants/chez-hipolene",
		"image_url": "https://media.timeout.com/images/103617738/image.jpg",
		"latitude": 48.863271,
		"longitude": 2.378738,
		"id_area": "Saint-Ambroise"
	},
	{
		"id": "798064",
		"name": "Adria",
		"address": "53 rue de Charenton",
		"city": "Paris",
		"mainCategory": "Restaurants",
		"editorial_rating": 5,
		"description": "Le resto italo-croate du 12e qui déboîte. Un autre versant de la méditerranée",
		"to_website": "https://www.timeout.fr/paris/restaurants/adria",
		"image_url": "https://media.timeout.com/images/105233573/image.jpg",
		"latitude": 48.850945,
		"longitude": 2.37294,
		"id_area": "Bastille"
	},
	{
		"id": "807296",
		"name": "Supernature (restaurant)",
		"address": "15, rue de Trévise",
		"city": "Paris",
		"mainCategory": "Restaurants",
		"editorial_rating": 5,
		"description": "Un restaurant à tester avec un.e ami. veggie ou vegan, tout bon tout bio !",
		"to_website": "https://www.timeout.fr/paris/restaurants/supernature-restaurant",
		"image_url": "https://media.timeout.com/images/105280237/image.jpg",
		"latitude": 48.87363,
		"longitude": 2.344968,
		"id_area": "Faubourg Montmartre"
	},
	{
		"id": "248917",
		"name": "Anahi",
		"address": "49 rue Volta",
		"city": "Paris",
		"mainCategory": "Restaurants",
		"editorial_rating": 5,
		"description": "De la viande (très) haut de gamme et des spécialités sud-américaines : le combo parfait",
		"to_website": "https://www.timeout.fr/paris/restaurants/anahi",
		"image_url": "https://media.timeout.com/images/103962048/image.jpg",
		"latitude": 48.867026,
		"longitude": 2.358261,
		"id_area": "3e arrondissement"
	},
	{
		"id": "793584",
		"name": "Monsieur Caramel",
		"address": "79 rue Duhesme",
		"city": "Paris",
		"mainCategory": "Restaurants",
		"editorial_rating": 5,
		"description": "Un salon de thé-pâtisserie français aussi beau que bon, tenu par un... Coréen !  Spécialité ? Le caramel au beurre salé !",
		"to_website": "https://www.timeout.fr/paris/restaurants/monsieur-caramel",
		"image_url": "https://media.timeout.com/images/105190662/image.jpg",
		"latitude": 48.894188,
		"longitude": 2.343548,
		"id_area": "18e arrondissement"
	},
	{
		"id": "750127",
		"name": "Mon Oncle le Vigneron",
		"address": "71 rue Rebeval",
		"city": "Paris",
		"mainCategory": "Restaurants",
		"editorial_rating": 5,
		"description": "Une table d’hôtes pleine d’âme au milieu de Belleville.",
		"to_website": "https://www.timeout.fr/paris/restaurants/mon-oncle-le-vigneron",
		"image_url": "https://media.timeout.com/images/103845469/image.jpg",
		"latitude": 48.874786,
		"longitude": 2.381376,
		"id_area": "19e arrondissement"
	},
	{
		"id": "749090",
		"name": "Le Radis Beurre",
		"address": "51 boulevard Garibaldi",
		"city": "Paris",
		"mainCategory": "Restaurants",
		"editorial_rating": 5,
		"description": "Dans le 15e, bistrot parigot raffiné.",
		"to_website": "https://www.timeout.fr/paris/restaurants/le-radis-beurre",
		"image_url": "https://media.timeout.com/images/103834255/image.jpg",
		"latitude": 48.846356,
		"longitude": 2.307828,
		"id_area": "Necker"
	},
	{
		"id": "754786",
		"name": "Paninaro",
		"address": "112 rue de la Roquette",
		"city": "Paris",
		"mainCategory": "Restaurants",
		"editorial_rating": 5,
		"description": "Panini, épicerie & cave italienne de compet'.",
		"to_website": "https://www.timeout.fr/paris/restaurants/paninaro",
		"image_url": "https://media.timeout.com/images/103898319/image.jpg",
		"latitude": 48.856814,
		"longitude": 2.37822,
		"id_area": "Roquette"
	},
	{
		"id": "764917",
		"name": "Otium",
		"address": "56 rue de la Rochefoucauld",
		"city": "Paris",
		"mainCategory": "Restaurants",
		"editorial_rating": 5,
		"description": "Un instant spa pour vos papilles.",
		"to_website": "https://www.timeout.fr/paris/restaurants/otium",
		"image_url": "https://media.timeout.com/images/104084896/image.jpg",
		"latitude": 48.880405,
		"longitude": 2.335484,
		"id_area": "9e arrondissement"
	},
	{
		"id": "782103",
		"name": "Zaoka",
		"address": "3 rue des Patriarches",
		"city": "Paris",
		"mainCategory": "Restaurants",
		"editorial_rating": 5,
		"description": "Alerte pépite Rive gauche !  Un bistronomique de poche made in Taïwan, où grailler poulet frit croustidingue et les meilleurs gua bao de la capitale",
		"to_website": "https://www.timeout.fr/paris/restaurants/zaoka",
		"image_url": "https://media.timeout.com/images/105170410/image.jpg",
		"latitude": 48.841356,
		"longitude": 2.350984,
		"id_area": "5e arrondissement"
	},
	{
		"id": "752914",
		"name": "Le Bar des Prés",
		"address": "25 rue du Dragon",
		"city": "Paris",
		"mainCategory": "Bars",
		"editorial_rating": 5,
		"description": "Cyril Lignac à l'heure japonaise.",
		"to_website": "https://www.timeout.fr/paris/bars/le-bar-des-pres",
		"image_url": "https://media.timeout.com/images/105135126/image.jpg",
		"latitude": 48.852763,
		"longitude": 2.330653,
		"id_area": "Saint-Germain-des-Prés"
	},
	{
		"id": "806048",
		"name": "Miznon Canal Saint-Martin",
		"address": "37 quai de Valmy",
		"city": "Paris",
		"mainCategory": "Restaurants",
		"editorial_rating": 5,
		"description": "Quand Miznon amarre au Canal Saint-Martin...",
		"to_website": "https://www.timeout.fr/paris/restaurants/miznon-canal-saint-martin",
		"image_url": "https://media.timeout.com/images/105272037/image.jpg",
		"latitude": 48.869193,
		"longitude": 2.366401,
		"id_area": "République"
	},
	{
		"id": "10971",
		"name": "Bodrum",
		"address": "43 rue des Batignolles",
		"city": "Paris",
		"mainCategory": "Restaurants",
		"editorial_rating": 5,
		"description": "100%  poitrine de veau ! Ici la viande est tellement bonne qu'on la propose aussi en barquettes solo",
		"to_website": "https://www.timeout.fr/paris/restaurants/bodrum",
		"image_url": "https://media.timeout.com/images/105161642/image.jpg",
		"latitude": 48.88541,
		"longitude": 2.31992,
		"id_area": "17e arrondissement"
	},
	{
		"id": "549453",
		"name": "L'Esquisse",
		"address": "151 bis rue Marcadet",
		"city": "Paris",
		"mainCategory": "Restaurants",
		"editorial_rating": 5,
		"description": "Une cuisine qui relève du tableau de maître.",
		"to_website": "https://www.timeout.fr/paris/restaurants/lesquisse",
		"image_url": "https://media.timeout.com/images/102535414/image.jpg",
		"latitude": 48.89117,
		"longitude": 2.33863,
		"id_area": "18e arrondissement"
	},
	{
		"id": "695058",
		"name": "Fichon",
		"address": "98 rue Marcadet",
		"city": "Paris",
		"mainCategory": "Bars",
		"editorial_rating": 5,
		"description": "Ce « boissonnier » propose de savourer des produits de la mer avec du bon vin.",
		"to_website": "https://www.timeout.fr/paris/bars/fichon",
		"image_url": "https://media.timeout.com/images/103387869/image.jpg",
		"latitude": 48.891031,
		"longitude": 2.344946,
		"id_area": "Mairie du 18e"
	},
	{
		"id": "642333",
		"name": "Welcome Bio",
		"address": "10 rue Boulle",
		"city": "Paris",
		"mainCategory": "Restaurants",
		"editorial_rating": 5,
		"description": "Une petite table bio où les gourmands mezzés méditerranéens côtoient les meilleurs cépages grecs.",
		"to_website": "https://www.timeout.fr/paris/restaurants/welcome-bio",
		"image_url": "https://media.timeout.com/images/102995055/image.jpg",
		"latitude": 48.856913,
		"longitude": 2.372564,
		"id_area": "Roquette"
	},
	{
		"id": "663547",
		"name": "L'Avant Comptoir de la Mer",
		"address": "3 carrefour de l'Odéon",
		"city": "Paris",
		"mainCategory": "Restaurants",
		"editorial_rating": 5,
		"description": "Élu meilleur bar à miam lors des Bar Awards 2016",
		"to_website": "https://www.timeout.fr/paris/restaurants/lavant-comptoir-de-la-mer",
		"image_url": "https://media.timeout.com/images/105193406/image.jpg",
		"latitude": 48.851047,
		"longitude": 2.338922,
		"id_area": "Odéon"
	},
	{
		"id": "774213",
		"name": "Yoshinori",
		"address": "18 rue Grégoire de Tours",
		"city": "Paris",
		"mainCategory": "Restaurants",
		"editorial_rating": 5,
		"description": "Table céleste.",
		"to_website": "https://www.timeout.fr/paris/restaurants/yoshinori",
		"image_url": "https://media.timeout.com/images/104696202/image.jpg",
		"latitude": 48.853008,
		"longitude": 2.337711,
		"id_area": "6e arrondissement"
	},
	{
		"id": "733156",
		"name": "Le brunch du Royal Monceau",
		"address": "37 avenue Hoche",
		"city": "Paris",
		"mainCategory": "Restaurants",
		"editorial_rating": 5,
		"description": "Le brunch du Royal Monceau : un chef d’œuvre de gourmandise.",
		"to_website": "https://www.timeout.fr/paris/restaurants/le-brunch-du-royal-monceau",
		"image_url": "https://media.timeout.com/images/105277820/image.jpg",
		"latitude": 48.875636,
		"longitude": 2.300497,
		"id_area": "8e arrondissement"
	},
	{
		"id": "793364",
		"name": "Au Nouveau Nez",
		"address": "104 rue Saint-Maur",
		"city": "Paris",
		"mainCategory": "Restaurants",
		"editorial_rating": 5,
		"description": "Prix tenus en laisse, assiettes savoureuses, belles quilles… Nature peinture, comme le décor !",
		"to_website": "https://www.timeout.fr/paris/restaurants/au-nouveau-nez",
		"image_url": "https://media.timeout.com/images/105192604/image.jpg",
		"latitude": 48.866204,
		"longitude": 2.377086,
		"id_area": "11e arrondissement"
	},
	{
		"id": "750853",
		"name": "Pontochoux",
		"address": "18 rue du Pont-aux-Choux",
		"city": "Paris",
		"mainCategory": "Restaurants",
		"editorial_rating": 5,
		"description": "Curry nippon sur l’archipel des hipsters.",
		"to_website": "https://www.timeout.fr/paris/restaurants/pontochoux",
		"image_url": "https://media.timeout.com/images/103853973/image.jpg",
		"latitude": 48.861313,
		"longitude": 2.365182,
		"id_area": "Le Marais"
	},
	{
		"id": "789717",
		"name": "L'Ours",
		"address": "10-12, rue de l’Eglise, Vincennes",
		"city": "Paris",
		"mainCategory": "Restaurants",
		"editorial_rating": 5,
		"description": "A Vincennes, la 2e adresse gastro du chef étoilé Jacky Ribault. Produits sur-sourcés, 100% franciliens !",
		"to_website": "https://www.timeout.fr/paris/restaurants/lours",
		"image_url": "https://media.timeout.com/images/105165245/image.jpg",
		"latitude": 48.847704,
		"longitude": 2.436787,
		"id_area": "Paris et sa banlieue"
	},
	{
		"id": "740038",
		"name": "Jium",
		"address": "26 rue Tiphaine",
		"city": "Paris",
		"mainCategory": "Restaurants",
		"editorial_rating": 5,
		"description": "Exquise promenade entre Paris et Séoul…",
		"to_website": "https://www.timeout.fr/paris/restaurants/jium",
		"image_url": "https://media.timeout.com/images/103749233/image.jpg",
		"latitude": 48.84867,
		"longitude": 2.296691,
		"id_area": "Grenelle"
	},
	{
		"id": "136113",
		"name": "ZenZoo",
		"address": "13 Rue Chabanais",
		"city": "Paris",
		"mainCategory": "Restaurants",
		"editorial_rating": 5,
		"description": "Les meilleurs bubble tea de Paris !",
		"to_website": "https://www.timeout.fr/paris/restaurants/zenzoo",
		"image_url": "https://media.timeout.com/images/103112611/image.jpg",
		"latitude": 48.86771,
		"longitude": 2.337038,
		"id_area": "2e arrondissement"
	},
	{
		"id": "769007",
		"name": "Orties",
		"address": "24 rue Rodier",
		"city": "Paris",
		"mainCategory": "Restaurants",
		"editorial_rating": 5,
		"description": "Orties, la pépite bistronomique sauce écolo.",
		"to_website": "https://www.timeout.fr/paris/restaurants/orties",
		"image_url": "https://media.timeout.com/images/104091343/image.jpg",
		"latitude": 48.87842,
		"longitude": 2.342904,
		"id_area": "9e arrondissement"
	},
	{
		"id": "684448",
		"name": "Pratz",
		"address": "59 rue Jean-Baptiste Pigalle",
		"city": "Paris",
		"mainCategory": "Bars",
		"editorial_rating": 5,
		"description": "Cette charmante cave à manger, avec sa déco très brute, devrait limite rester secrète.",
		"to_website": "https://www.timeout.fr/paris/bars/pratz",
		"image_url": "https://media.timeout.com/images/103281094/image.jpg",
		"latitude": 48.880938,
		"longitude": 2.335529,
		"id_area": "Saint-Georges"
	},
	{
		"id": "756827",
		"name": "L’heure du goûter au Shangri-La",
		"address": "10 avenue d'Iéna",
		"city": "Paris",
		"mainCategory": "Restaurants",
		"editorial_rating": 5,
		"description": "Un goûter gargantuesque pour adultes raffinés et gloutons.",
		"to_website": "https://www.timeout.fr/paris/restaurants/lheure-du-gouter-au-shangri-la",
		"image_url": "https://media.timeout.com/images/103924285/image.jpg",
		"latitude": 48.863701,
		"longitude": 2.293451,
		"id_area": "16e arrondissement"
	},
	{
		"id": "773154",
		"name": "Jixiao's buns",
		"address": "91 rue Beaubourg",
		"city": "Paris",
		"mainCategory": "Restaurants",
		"editorial_rating": 5,
		"description": "Chinese buns tout doux",
		"to_website": "https://www.timeout.fr/paris/restaurants/jixiaos-buns",
		"image_url": "https://media.timeout.com/images/104681311/image.jpg",
		"latitude": 48.864411,
		"longitude": 2.355047,
		"id_area": "3e arrondissement"
	},
	{
		"id": "669367",
		"name": "Le Tagine",
		"address": "13 rue de Crussol",
		"city": "Paris",
		"mainCategory": "Restaurants",
		"editorial_rating": 5,
		"description": "On a trouvé le meilleur couscous de Paris.",
		"to_website": "https://www.timeout.fr/paris/restaurants/le-tagine",
		"image_url": "https://media.timeout.com/images/103163096/image.jpg",
		"latitude": 48.86439,
		"longitude": 2.36782,
		"id_area": "Folie-Méricourt"
	},
	{
		"id": "151869",
		"name": "Frenchie To Go",
		"address": "9 rue du Nil",
		"city": "Paris",
		"mainCategory": "Restaurants",
		"editorial_rating": 5,
		"description": "Street food US & british.",
		"to_website": "https://www.timeout.fr/paris/restaurants/frenchie-to-go",
		"image_url": "https://media.timeout.com/images/105279073/image.jpg",
		"latitude": 48.86768,
		"longitude": 2.3476,
		"id_area": "Sentier"
	},
	{
		"id": "756077",
		"name": "Quinsou",
		"address": "33 rue de l’Abbé Grégoire",
		"city": "Paris",
		"mainCategory": "Restaurants",
		"editorial_rating": 5,
		"description": "Le produit est roi !",
		"to_website": "https://www.timeout.fr/paris/restaurants/quinsou",
		"image_url": "https://media.timeout.com/images/103909726/image.jpg",
		"latitude": 48.847681,
		"longitude": 2.325601,
		"id_area": "6e arrondissement"
	},
	{
		"id": "786893",
		"name": "Le 975",
		"address": "25 Rue Guy Môquet",
		"city": "Paris",
		"mainCategory": "Restaurants",
		"editorial_rating": 5,
		"description": "Gastronomie française sous influence nipponne... A prix (très) sages !",
		"to_website": "https://www.timeout.fr/paris/restaurants/le-975",
		"image_url": "https://media.timeout.com/images/105248756/image.jpg",
		"latitude": 48.892044,
		"longitude": 2.322447,
		"id_area": "Epinettes"
	},
	{
		"id": "776388",
		"name": "Pertinence",
		"address": "29 Rue de l'Exposition",
		"city": "Paris",
		"mainCategory": "Restaurants",
		"editorial_rating": 5,
		"description": "La table la plus confidentielle du 7e",
		"to_website": "https://www.timeout.fr/paris/restaurants/pertinence",
		"image_url": "https://media.timeout.com/images/104990858/image.jpg",
		"latitude": 48.857084,
		"longitude": 2.303495,
		"id_area": "7e arrondissement"
	},
	{
		"id": "291593",
		"name": "UMA",
		"address": "7 rue du 29 Juillet",
		"city": "Paris",
		"mainCategory": "Restaurants",
		"editorial_rating": 5,
		"description": "Un resto- bar proposant une cuisine fusion franco-japonaise, tintée d’inspirations péruviennes.",
		"to_website": "https://www.timeout.fr/paris/restaurants/uma",
		"image_url": "https://media.timeout.com/images/101893349/image.jpg",
		"latitude": 48.865096,
		"longitude": 2.33047,
		"id_area": "1er arrondissement"
	},
	{
		"id": "791871",
		"name": "Terra",
		"address": "21 rue des Gravilliers",
		"city": "Paris",
		"mainCategory": "Restaurants",
		"editorial_rating": 5,
		"description": "Un écrin sous verrière, planqué dans un ex entrepôt de maroquinerie chinoise. Bons vins et pièces entières, à partager à deux ou trois",
		"to_website": "https://www.timeout.fr/paris/restaurants/terra",
		"image_url": "https://media.timeout.com/images/105180865/image.jpg",
		"latitude": 48.863724,
		"longitude": 2.356806,
		"id_area": "3e arrondissement"
	},
	{
		"id": "801122",
		"name": "Mi Peru",
		"address": "7 rue Rondelet",
		"city": "Paris",
		"mainCategory": "Restaurants",
		"editorial_rating": 5,
		"description": "Le plus authentique de tous les restos péruviens de Paris. Sans doute aussi le meilleur.",
		"to_website": "https://www.timeout.fr/paris/restaurants/mi-peru",
		"image_url": "https://media.timeout.com/images/105250657/image.jpg",
		"latitude": 48.84672,
		"longitude": 2.385193,
		"id_area": "Picpus"
	},
	{
		"id": "752459",
		"name": "Le Comptoir de la Gastronomie",
		"address": "34 rue Montmartre",
		"city": "Paris",
		"mainCategory": "Restaurants",
		"editorial_rating": 5,
		"description": "Notre plan casse-croûte préféré aux Halles.",
		"to_website": "https://www.timeout.fr/paris/restaurants/le-comptoir-de-la-gastronomie",
		"image_url": "https://media.timeout.com/images/103871677/image.jpg",
		"latitude": 48.864566,
		"longitude": 2.345472,
		"id_area": "Les Halles"
	},
	{
		"id": "729787",
		"name": "La Table Afghane",
		"address": "107 rue Didot",
		"city": "Paris",
		"mainCategory": "Restaurants",
		"editorial_rating": 5,
		"description": "La cuisine afghane au carrefour du Moyen-Orient et de l’Asie centrale.",
		"to_website": "https://www.timeout.fr/paris/restaurants/la-table-afghane",
		"image_url": "https://media.timeout.com/images/103651062/image.jpg",
		"latitude": 48.827633,
		"longitude": 2.316554,
		"id_area": "Plaisance"
	},
	{
		"id": "750866",
		"name": "Copenhague",
		"address": "142 Avenue des Champs-Elysée",
		"city": "Paris",
		"mainCategory": "Restaurants",
		"editorial_rating": 5,
		"description": "Noma who?",
		"to_website": "https://www.timeout.fr/paris/restaurants/copenhague",
		"image_url": "https://media.timeout.com/images/103854526/image.jpg",
		"latitude": 48.872996,
		"longitude": 2.298762,
		"id_area": "8e arrondissement"
	},
	{
		"id": "690258",
		"name": "Au P'tit Douai",
		"address": "38 rue de Douai",
		"city": "Paris",
		"mainCategory": "Bars",
		"editorial_rating": 5,
		"description": "Dès qu'on pose un pied dans ce petit bistrot qui ne paie pas de mine, on a tout de suite envie de devenir un habitué.",
		"to_website": "https://www.timeout.fr/paris/bars/au-ptit-douai",
		"image_url": "https://media.timeout.com/images/103331516/image.jpg",
		"latitude": 48.882769,
		"longitude": 2.332335,
		"id_area": "Saint-Georges"
	},
	{
		"id": "691069",
		"name": "Matsuhisa Paris",
		"address": "37 avenue Hoche",
		"city": "Paris",
		"mainCategory": "Restaurants",
		"editorial_rating": 5,
		"description": "Fusion entre la gastronomie japonaise et celle d'Amérique latine.",
		"to_website": "https://www.timeout.fr/paris/restaurants/matsuhisa-paris",
		"image_url": "https://media.timeout.com/images/103339653/image.jpg",
		"latitude": 48.87583,
		"longitude": 2.30041,
		"id_area": "8e arrondissement"
	},
	{
		"id": "714745",
		"name": "Abri Soba",
		"address": "10 rue Saulnier",
		"city": "Paris",
		"mainCategory": "Restaurants",
		"editorial_rating": 5,
		"description": "Tous aux sobas !",
		"to_website": "https://www.timeout.fr/paris/restaurants/abri-soba",
		"image_url": "https://media.timeout.com/images/105282050/image.jpg",
		"latitude": 48.874976,
		"longitude": 2.344562,
		"id_area": "Faubourg Montmartre"
	},
	{
		"id": "2314",
		"name": "L'Arpège",
		"address": "84 rue de Varenne",
		"city": "Paris",
		"mainCategory": "Restaurants",
		"editorial_rating": 5,
		"description": "Trois étoiles végétal.",
		"to_website": "https://www.timeout.fr/paris/restaurants/larpege",
		"image_url": "https://media.timeout.com/images/105147482/image.jpg",
		"latitude": 48.855686,
		"longitude": 2.31708,
		"id_area": "Invalides"
	},
	{
		"id": "777319",
		"name": "Les Pantins",
		"address": "6, rue Victor Hugo",
		"city": "Pantin",
		"mainCategory": "Restaurants",
		"editorial_rating": 5,
		"description": "C’est pas des guignols !",
		"to_website": "https://www.timeout.fr/paris/restaurants/les-pantins",
		"image_url": "https://media.timeout.com/images/105082138/image.jpg",
		"latitude": 48.895271,
		"longitude": 2.401795,
		"id_area": "Paris et sa banlieue"
	},
	{
		"id": "616057",
		"name": "Desi Road",
		"address": "14 rue Dauphine",
		"city": "Paris",
		"mainCategory": "Restaurants",
		"editorial_rating": 5,
		"description": "Une cuisine indienne contemporaine, atypique et surprenante,  très loin des clichés que l'on peut avoir sur les restaurants indiens",
		"to_website": "https://www.timeout.fr/paris/restaurants/desi-road",
		"image_url": "https://media.timeout.com/images/102850429/image.jpg",
		"latitude": 48.855687,
		"longitude": 2.339902,
		"id_area": "6e arrondissement"
	},
	{
		"id": "792681",
		"name": "L’Innocence",
		"address": "28 Rue de la Tour d'Auvergne",
		"city": "Paris-9E-Arrondissement",
		"mainCategory": "Restaurants",
		"editorial_rating": 5,
		"description": "Un gastronomique de haut vol au pied de la Butte, à tarif démocratique : youpi !",
		"to_website": "https://www.timeout.fr/paris/restaurants/linnocence",
		"image_url": "https://media.timeout.com/images/105211459/image.jpg",
		"latitude": 48.879339,
		"longitude": 2.343357,
		"id_area": "Pigalle"
	},
	{
		"id": "734356",
		"name": "Clover Grill",
		"address": "6 rue Bailleul",
		"city": "Paris",
		"mainCategory": "Restaurants",
		"editorial_rating": 5,
		"description": "La nouvelle adresse carnivore de Jean-François Piège.",
		"to_website": "https://www.timeout.fr/paris/restaurants/clover-grill",
		"image_url": "https://media.timeout.com/images/103696347/image.jpg",
		"latitude": 48.861087,
		"longitude": 2.341998,
		"id_area": "Les Halles"
	},
	{
		"id": "742840",
		"name": "Karamel",
		"address": "67 rue Saint-Dominique",
		"city": "Paris",
		"mainCategory": "Restaurants",
		"editorial_rating": 5,
		"description": "La pâtisserie-salon de thé dont tout Paris parle",
		"to_website": "https://www.timeout.fr/paris/restaurants/karamel",
		"image_url": "https://media.timeout.com/images/103775709/image.jpg",
		"latitude": 48.859836,
		"longitude": 2.310714,
		"id_area": "Invalides"
	},
	{
		"id": "788530",
		"name": "Ozlem",
		"address": "57 rue des Petites-Ecuries",
		"city": "Paris",
		"mainCategory": "Restaurants",
		"editorial_rating": 5,
		"description": "Viens tâter d’la broche",
		"to_website": "https://www.timeout.fr/paris/restaurants/ozlem",
		"image_url": "https://media.timeout.com/images/105159916/image.jpg",
		"latitude": 48.873933,
		"longitude": 2.348499,
		"id_area": "10e arrondissement"
	},
	{
		"id": "615882",
		"name": "Capucine",
		"address": "159 rue du Faubourg Saint-Antoine",
		"city": "Paris",
		"mainCategory": "Restaurants",
		"editorial_rating": 5,
		"description": "Une délicieuse caffetteria italienne cachée dans un passage calme du quartier Ledru-Rollin.",
		"to_website": "https://www.timeout.fr/paris/restaurants/capucine",
		"image_url": "https://media.timeout.com/images/102849498/image.jpg",
		"latitude": 48.850659,
		"longitude": 2.37964,
		"id_area": "Charonne"
	},
	{
		"id": "647713",
		"name": "Krishna Bhavan Cail",
		"address": "24 rue Cail",
		"city": "Paris",
		"mainCategory": "Restaurants",
		"editorial_rating": 5,
		"description": "Un délicieux resto indien veggie à petits prix.",
		"to_website": "https://www.timeout.fr/paris/restaurants/krishna-bhavan-cail",
		"image_url": "https://media.timeout.com/images/103024808/image.jpg",
		"latitude": 48.88293,
		"longitude": 2.35957,
		"id_area": "Gare de l'Est"
	},
	{
		"id": "700711",
		"name": "Onoto",
		"address": "229 bis rue Marcadet",
		"city": "Paris",
		"mainCategory": "Restaurants",
		"editorial_rating": 5,
		"description": "Cuisine familiale argentine et bien plus encore.",
		"to_website": "https://www.timeout.fr/paris/restaurants/onoto",
		"image_url": "https://media.timeout.com/images/103424581/image.jpg",
		"latitude": 48.892121,
		"longitude": 2.331185,
		"id_area": "18e arrondissement"
	},
	{
		"id": "743103",
		"name": "Le Café du Commerce",
		"address": "51 rue du commerce",
		"city": "Paris",
		"mainCategory": "Restaurants",
		"editorial_rating": 5,
		"description": "Une brasserie typique et conviviale dans le 15e.",
		"to_website": "https://www.timeout.fr/paris/restaurants/le-cafe-du-commerce",
		"image_url": "https://media.timeout.com/images/103779060/image.jpg",
		"latitude": 48.846359,
		"longitude": 2.295654,
		"id_area": "Grenelle"
	},
	{
		"id": "148819",
		"name": "Mary Gelateria",
		"address": "60 rue du Temple",
		"city": "Paris",
		"mainCategory": "Restaurants",
		"editorial_rating": 5,
		"description": "Exit colorants, arômes artificiels ou conservateurs. Cette Milanaise ne travaille qu'avec des produits de saison.",
		"to_website": "https://www.timeout.fr/paris/restaurants/mary-gelateria",
		"image_url": "https://media.timeout.com/images/105248896/image.jpg",
		"latitude": 48.860775,
		"longitude": 2.355571,
		"id_area": "Le Marais"
	},
	{
		"id": "10181",
		"name": "Septime",
		"address": "80 rue de Charonne",
		"city": "Paris",
		"mainCategory": "Restaurants",
		"editorial_rating": 5,
		"description": "Retour à la table bistronomique étoilée de Bertrand Grébaut.",
		"to_website": "https://www.timeout.fr/paris/restaurants/septime-1",
		"image_url": "https://media.timeout.com/images/105287006/image.jpg",
		"latitude": 48.853565,
		"longitude": 2.38043,
		"id_area": "Roquette"
	},
	{
		"id": "755688",
		"name": "Marrow",
		"address": "128 Rue du Faubourg Saint-Martin",
		"city": "Paris",
		"mainCategory": "Restaurants",
		"editorial_rating": 5,
		"description": "Le bistrot coup de fouet du 10e.",
		"to_website": "https://www.timeout.fr/paris/restaurants/marrow",
		"image_url": "https://media.timeout.com/images/103903764/image.jpg",
		"latitude": 48.874388,
		"longitude": 2.358907,
		"id_area": "Canal Saint-Martin"
	},
	{
		"id": "806607",
		"name": "37 m2 Saint Denis",
		"address": "132 rue Saint Denis",
		"city": "Paris",
		"mainCategory": "Restaurants",
		"editorial_rating": 5,
		"description": "Un bar à bubble tea avec une quinzaine de places assises, qui fait aussi des gua bao",
		"to_website": "https://www.timeout.fr/paris/restaurants/37-m2-saint-denis",
		"image_url": "https://media.timeout.com/images/105276197/image.jpg",
		"latitude": 48.864938,
		"longitude": 2.350438,
		"id_area": "Réaumur"
	},
	{
		"id": "613323",
		"name": "Une Glace à Paris",
		"address": "15 rue Sainte-Croix de la Bretonnerie",
		"city": "Paris",
		"mainCategory": "Restaurants",
		"editorial_rating": 5,
		"description": "Une boutique lancée en 2015 par serial champion, Meilleur Ouvrier de France Glacier, Champion du Monde de Pâtisserie, Champion de France de sculpture sur glace",
		"to_website": "https://www.timeout.fr/paris/restaurants/une-glace-a-paris",
		"image_url": "https://media.timeout.com/images/102823169/image.jpg",
		"latitude": 48.858235,
		"longitude": 2.356205,
		"id_area": "Le Marais"
	},
	{
		"id": "773676",
		"name": "Eels",
		"address": "27 rue d’Hauteville",
		"city": "Paris",
		"mainCategory": "Restaurants",
		"editorial_rating": 5,
		"description": "Coup de maître !",
		"to_website": "https://www.timeout.fr/paris/restaurants/eels",
		"image_url": "https://media.timeout.com/images/104687557/image.jpg",
		"latitude": 48.873247,
		"longitude": 2.349996,
		"id_area": "10e arrondissement"
	},
	{
		"id": "652495",
		"name": "Le Ruisseau - Burger Joint",
		"address": "22 rue Rambuteau",
		"city": "Paris",
		"mainCategory": "Restaurants",
		"editorial_rating": 5,
		"description": "Burgers moelleux et frites croustillantes à prix réglo.",
		"to_website": "https://www.timeout.fr/paris/restaurants/le-ruisseau-burger-joint",
		"image_url": "https://media.timeout.com/images/103066801/image.jpg",
		"latitude": 48.8609,
		"longitude": 2.35435,
		"id_area": "Le Marais"
	},
	{
		"id": "806166",
		"name": "Chez Gégène",
		"address": "162 bis, quai de Polangis",
		"city": "Joinville-Le-Pont",
		"mainCategory": "Restaurants",
		"editorial_rating": 5,
		"description": "L'ancêtre des guinguettes parisiennes ! Une Institution nichée sur le bord de la Marne, à Joinville-le-Pont.",
		"to_website": "https://www.timeout.fr/paris/restaurants/chez-gegene",
		"image_url": "https://media.timeout.com/images/105273124/image.jpg",
		"latitude": 48.829703,
		"longitude": 2.474858,
		"id_area": "Paris et sa banlieue"
	},
	{
		"id": "795266",
		"name": "Coup d'Œil",
		"address": "80 rue Sedaine",
		"city": "Paris",
		"mainCategory": "Restaurants",
		"editorial_rating": 5,
		"description": "Une cave à manger designée sur-mesure. Vins nature extra, avec tapas chiadés le soir, et plats de mère-grand le midi !",
		"to_website": "https://www.timeout.fr/paris/restaurants/coup-doeil-1",
		"image_url": "https://media.timeout.com/images/105207476/image.jpg",
		"latitude": 48.858522,
		"longitude": 2.378397,
		"id_area": "Roquette"
	},
	{
		"id": "712239",
		"name": "Mirama",
		"address": "17 rue Saint-Jacques",
		"city": "Paris",
		"mainCategory": "Restaurants",
		"editorial_rating": 5,
		"description": "L’institution chinoise de Saint-Michel.",
		"to_website": "https://www.timeout.fr/paris/restaurants/mirama",
		"image_url": "https://media.timeout.com/images/103510217/image.jpg",
		"latitude": 48.851645,
		"longitude": 2.346307,
		"id_area": "Quartier latin"
	},
	{
		"id": "750859",
		"name": "KL Pâtisserie",
		"address": "78 avenue de Villiers",
		"city": "Paris",
		"mainCategory": "Restaurants",
		"editorial_rating": 5,
		"description": "Ces desserts ont la cote !",
		"to_website": "https://www.timeout.fr/paris/restaurants/kl-patisserie",
		"image_url": "https://media.timeout.com/images/103854426/image.jpg",
		"latitude": 48.883877,
		"longitude": 2.304507,
		"id_area": "Monceau"
	},
	{
		"id": "2291",
		"name": "Itinéraires",
		"address": "5 rue de Pontoise",
		"city": "Paris",
		"mainCategory": "Restaurants",
		"editorial_rating": 5,
		"description": "Adresse fermée, bientôt reprise par la jeune cheffe Julia Sedefdjian (ex Les Fables de la Fontaine). Affaire à suivre !",
		"to_website": "https://www.timeout.fr/paris/restaurants/itineraires",
		"image_url": "https://media.timeout.com/images/103453905/image.jpg",
		"latitude": 48.850133,
		"longitude": 2.352186,
		"id_area": "Jussieu"
	},
	{
		"id": "747841",
		"name": "Glacier Pierre Geronimi",
		"address": "5 rue Férou",
		"city": "Paris",
		"mainCategory": "Restaurants",
		"editorial_rating": 5,
		"description": "La glacerie corse aux goûts étonnants & aux produits d'exception.",
		"to_website": "https://www.timeout.fr/paris/restaurants/glacier-pierre-geronimi",
		"image_url": "https://media.timeout.com/images/103816945/image.jpg",
		"latitude": 48.850073,
		"longitude": 2.334297,
		"id_area": "Odéon"
	},
	{
		"id": "2265",
		"name": "Breizh Café",
		"address": "109 rue Vieille du Temple",
		"city": "Paris",
		"mainCategory": "Restaurants",
		"editorial_rating": 5,
		"description": "Tout simplement la meilleure crêperie de Paris",
		"to_website": "https://www.timeout.fr/paris/restaurants/breizh-cafe",
		"image_url": "https://media.timeout.com/images/105122182/image.jpg",
		"latitude": 48.860591,
		"longitude": 2.361877,
		"id_area": "Le Marais"
	},
	{
		"id": "787077",
		"name": "Deux fois plus de piment",
		"address": "33 Rue Saint-Sébastien",
		"city": "Paris",
		"mainCategory": "Restaurants",
		"editorial_rating": 5,
		"description": "Cuisine sichuanaise épicée !",
		"to_website": "https://www.timeout.fr/paris/restaurants/deux-fois-plus-de-piment-1",
		"image_url": "https://media.timeout.com/images/105147717/image.jpg",
		"latitude": 48.861543,
		"longitude": 2.370518,
		"id_area": "11e arrondissement"
	},
	{
		"id": "755689",
		"name": "Dilia",
		"address": "1 rue d'Eupatoria",
		"city": "Paris",
		"mainCategory": "Restaurants",
		"editorial_rating": 5,
		"description": "Cuisine gastrono-italienne généreuse et précise.",
		"to_website": "https://www.timeout.fr/paris/restaurants/dilia",
		"image_url": "https://media.timeout.com/images/103903785/image.jpg",
		"latitude": 48.868648,
		"longitude": 2.386202,
		"id_area": "Belleville"
	},
	{
		"id": "621684",
		"name": "Il Bacaro",
		"address": "9 rue Auguste Laurent",
		"city": "Paris",
		"mainCategory": "Restaurants",
		"editorial_rating": 5,
		"description": "Une taverne de charme comme en Italie du Nord",
		"to_website": "https://www.timeout.fr/paris/restaurants/il-bacaro",
		"image_url": "https://media.timeout.com/images/105245612/image.jpg",
		"latitude": 48.857164,
		"longitude": 2.382058,
		"id_area": "Roquette"
	},
	{
		"id": "758297",
		"name": "Toraya",
		"address": "10 rue Saint-Florentin",
		"city": "Paris",
		"mainCategory": "Restaurants",
		"editorial_rating": 5,
		"description": "Une maison traditionnelle du XVIe siècle spécialisée dans le matcha.",
		"to_website": "https://www.timeout.fr/paris/restaurants/toraya",
		"image_url": "https://media.timeout.com/images/103938193/image.jpg",
		"latitude": 48.867622,
		"longitude": 2.324562,
		"id_area": "1er arrondissement"
	},
	{
		"id": "775174",
		"name": "Café du Coin",
		"address": "9 rue Camille Desmoulins",
		"city": "Paris",
		"mainCategory": "Restaurants",
		"editorial_rating": 5,
		"description": "Le bonheur au coin d’la rue",
		"to_website": "https://www.timeout.fr/paris/restaurants/cafe-du-coin",
		"image_url": "https://media.timeout.com/images/104713588/image.jpg",
		"latitude": 48.859019,
		"longitude": 2.380971,
		"id_area": "11e arrondissement"
	},
	{
		"id": "777107",
		"name": "Pierre Sang - Signature",
		"address": "8 rue Gambey",
		"city": "Paris",
		"mainCategory": "Restaurants",
		"editorial_rating": 5,
		"description": "Quand Pierre Sang se lance à l'assaut des étoiles !",
		"to_website": "https://www.timeout.fr/paris/restaurants/pierre-sang-signature",
		"image_url": "https://media.timeout.com/images/105080247/image.jpg",
		"latitude": 48.865151,
		"longitude": 2.372097,
		"id_area": "Folie-Méricourt"
	},
	{
		"id": "608696",
		"name": "L'Amarante",
		"address": "4 rue Biscornet",
		"city": "Paris",
		"mainCategory": "Restaurants",
		"editorial_rating": 5,
		"description": "Une Institution du Vieux Paris, à deux pas de la Bastille.  Attention, resto pour les gros gros gros gourmands !",
		"to_website": "https://www.timeout.fr/paris/restaurants/lamarante",
		"image_url": "https://media.timeout.com/images/102798848/image.jpg",
		"latitude": 48.84962,
		"longitude": 2.370114,
		"id_area": "Bastille"
	},
	{
		"id": "716873",
		"name": "Retro Bottega",
		"address": "12 rue Saint-Bernard",
		"city": "Paris",
		"mainCategory": "Restaurants",
		"editorial_rating": 5,
		"description": "Dans cette cave nature : produits italiens sublimés par la cuisine juste de Pietro Russano.",
		"to_website": "https://www.timeout.fr/paris/restaurants/retro-bottega",
		"image_url": "https://media.timeout.com/images/103547426/image.jpg",
		"latitude": 48.851321,
		"longitude": 2.381695,
		"id_area": "Charonne"
	},
	{
		"id": "783087",
		"name": "Les Canailles Ménilmontant",
		"address": "15 rue des Panoyaux",
		"city": "Paris",
		"mainCategory": "Restaurants",
		"editorial_rating": 5,
		"description": "Un rêve de bistrot 1930, en plein Ménilmuche",
		"to_website": "https://www.timeout.fr/paris/restaurants/les-canailles-menilmontant",
		"image_url": "https://media.timeout.com/images/105169168/image.jpg",
		"latitude": 48.866699,
		"longitude": 2.385281,
		"id_area": "20e arrondissement"
	},
	{
		"id": "690919",
		"name": "La Cave de l'Os à Moelle",
		"address": "181 rue de Lourmel",
		"city": "Paris",
		"mainCategory": "Restaurants",
		"editorial_rating": 5,
		"description": "Table d'hôte.",
		"to_website": "https://www.timeout.fr/paris/restaurants/la-cave-de-los-a-moelle",
		"image_url": "https://media.timeout.com/images/103337715/image.jpg",
		"latitude": 48.838051,
		"longitude": 2.281956,
		"id_area": "Javel"
	},
	{
		"id": "652855",
		"name": "Sauvage",
		"address": "60 rue du Cherche-Midi",
		"city": "Paris",
		"mainCategory": "Restaurants",
		"editorial_rating": 5,
		"description": "Cave libre & nourriture sauvage.",
		"to_website": "https://www.timeout.fr/paris/restaurants/sauvage",
		"image_url": "https://media.timeout.com/images/103070625/image.jpg",
		"latitude": 48.848818,
		"longitude": 2.325003,
		"id_area": "Rennes-Sèvres"
	},
	{
		"id": "750259",
		"name": "Boulangerie Bo",
		"address": "85bis rue de Charenton",
		"city": "Paris",
		"mainCategory": "Restaurants",
		"editorial_rating": 5,
		"description": "Une boulangerie-pâtisserie de quartier remplie de pains au levain, de viennoiseries pur beurre et de pâtisseries délicates.",
		"to_website": "https://www.timeout.fr/paris/restaurants/boulangerie-bo",
		"image_url": "https://media.timeout.com/images/103845642/image.jpg",
		"latitude": 48.849016,
		"longitude": 2.375039,
		"id_area": "12e arrondissement"
	},
	{
		"id": "733870",
		"name": "Le Grand Bain",
		"address": "14 rue Denoyez",
		"city": "Paris",
		"mainCategory": "Restaurants",
		"editorial_rating": 5,
		"description": "Le saut dans le grand bain !",
		"to_website": "https://www.timeout.fr/paris/restaurants/le-grand-bain",
		"image_url": "https://media.timeout.com/images/104724968/image.jpg",
		"latitude": 48.871651,
		"longitude": 2.378566,
		"id_area": "Belleville"
	},
	{
		"id": "680021",
		"name": "Le Petit Keller",
		"address": "13 bis rue Keller",
		"city": "Paris",
		"mainCategory": "Restaurants",
		"editorial_rating": 5,
		"description": "Café, bar, restaurant et bento.",
		"to_website": "https://www.timeout.fr/paris/restaurants/le-petit-keller",
		"image_url": "https://media.timeout.com/images/103255736/image.jpg",
		"latitude": 48.854269,
		"longitude": 2.375956,
		"id_area": "Roquette"
	},
	{
		"id": "736181",
		"name": "Ten Belles Bread",
		"address": "17-19 rue Bréguet",
		"city": "Paris",
		"mainCategory": "Restaurants",
		"editorial_rating": 5,
		"description": "Un bakery-coffee shop par l'équipe franco-britannique derrière Le BAL Café et Ten Belles.",
		"to_website": "https://www.timeout.fr/paris/restaurants/ten-belles-bread",
		"image_url": "https://media.timeout.com/images/105285426/image.jpg",
		"latitude": 48.857584,
		"longitude": 2.373606,
		"id_area": "Roquette"
	},
	{
		"id": "775672",
		"name": "C.A.M",
		"address": "55 rue au Maire",
		"city": "Paris",
		"mainCategory": "Restaurants",
		"editorial_rating": 5,
		"description": "Livraison de came ultra-quali",
		"to_website": "https://www.timeout.fr/paris/restaurants/c-a-m",
		"image_url": "https://media.timeout.com/images/104721260/image.jpg",
		"latitude": 48.864867,
		"longitude": 2.35477,
		"id_area": "3e arrondissement"
	},
	{
		"id": "797422",
		"name": "Bopome",
		"address": "48 rue de Lancry",
		"city": "Paris",
		"mainCategory": "Restaurants",
		"editorial_rating": 5,
		"description": "Une cantine de poche dédiée à la street-food Made in Taïwan, à prix minis",
		"to_website": "https://www.timeout.fr/paris/restaurants/bopome",
		"image_url": "https://media.timeout.com/images/105228706/image.jpg",
		"latitude": 48.871886,
		"longitude": 2.362648,
		"id_area": "Canal Saint-Martin"
	},
	{
		"id": "799277",
		"name": "Laïzé",
		"address": "19 rue de Montmorency",
		"city": "Paris",
		"mainCategory": "Restaurants",
		"editorial_rating": 5,
		"description": "Un salon de thé chic et zen, dédié au bubble tea 100% nature",
		"to_website": "https://www.timeout.fr/paris/restaurants/laize",
		"image_url": "https://media.timeout.com/images/105244995/image.jpg",
		"latitude": 48.863043,
		"longitude": 2.355067,
		"id_area": "Le Marais"
	},
	{
		"id": "794994",
		"name": "Sellae",
		"address": "18 Rue des Wallons",
		"city": "Paris",
		"mainCategory": "Restaurants",
		"editorial_rating": 5,
		"description": "En plein 13e arrondissement, un bistronomique qui peint une cuisine française inventive et gourmande",
		"to_website": "https://www.timeout.fr/paris/restaurants/sellae",
		"image_url": "https://media.timeout.com/images/105229552/image.jpg",
		"latitude": 48.838707,
		"longitude": 2.359609,
		"id_area": "13e arrondissement"
	},
	{
		"id": "743426",
		"name": "Le Tea Time du Meurice",
		"address": "228 rue de Rivoli",
		"city": "Paris",
		"mainCategory": "Restaurants",
		"editorial_rating": 5,
		"description": "Avec les pâtisseries de Cédric Grolet.",
		"to_website": "https://www.timeout.fr/paris/restaurants/le-tea-time-du-meurice",
		"image_url": "https://media.timeout.com/images/103782576/image.jpg",
		"latitude": 48.865369,
		"longitude": 2.328218,
		"id_area": "1er arrondissement"
	},
	{
		"id": "154947",
		"name": "Rooftop du Mama Shelter",
		"address": "109 rue de Bagnolet",
		"city": "Paris",
		"mainCategory": "Restaurants",
		"editorial_rating": 5,
		"description": "Pour se croire en vacances un soir d’été sans passer le périph’ : tables de ping pong, grands hamacs avec plaids invitant à la sieste...",
		"to_website": "https://www.timeout.fr/paris/restaurants/rooftop-du-mama-shelter",
		"image_url": "https://media.timeout.com/images/100766587/image.jpg",
		"latitude": 48.85973,
		"longitude": 2.40289,
		"id_area": "20e arrondissement"
	},
	{
		"id": "764515",
		"name": "Café Méricourt",
		"address": "22 rue de la Folie Méricourt",
		"city": "Paris",
		"mainCategory": "Restaurants",
		"editorial_rating": 5,
		"description": "L’incontournable brunch du 11e.",
		"to_website": "https://www.timeout.fr/paris/restaurants/cafe-mericourt",
		"image_url": "https://media.timeout.com/images/104058368/image.jpg",
		"latitude": 48.862484,
		"longitude": 2.373698,
		"id_area": "11e arrondissement"
	},
	{
		"id": "642099",
		"name": "Trois Fois Plus de Piment",
		"address": "184 rue Saint-Martin",
		"city": "Paris",
		"mainCategory": "Restaurants",
		"editorial_rating": 5,
		"description": "Dans cette cantine chinoise, petits joueurs ou têtes brûlées choisissent leur degré de piment entre 1 et 5…",
		"to_website": "https://www.timeout.fr/paris/restaurants/trois-fois-plus-de-piment",
		"image_url": "https://media.timeout.com/images/103571574/image.jpg",
		"latitude": 48.862828,
		"longitude": 2.352373,
		"id_area": "3e arrondissement"
	},
	{
		"id": "803705",
		"name": "Uma Nota",
		"address": "86 Rue Réaumur",
		"city": "Paris-2E-Arrondissement",
		"mainCategory": "Restaurants",
		"editorial_rating": 5,
		"description": "Street-food nippo-brésilienne et cocktails extra.",
		"to_website": "https://www.timeout.fr/paris/restaurants/uma-nota",
		"image_url": "https://media.timeout.com/images/105267699/image.jpg",
		"latitude": 48.866909,
		"longitude": 2.350501,
		"id_area": "Sentier"
	},
	{
		"id": "738627",
		"name": "Da Graziella",
		"address": "41 rue des Petites Ecuries",
		"city": "Paris",
		"mainCategory": "Restaurants",
		"editorial_rating": 5,
		"description": "La meilleure pizza de Paris est napolitaine !",
		"to_website": "https://www.timeout.fr/paris/restaurants/da-graziella",
		"image_url": "https://media.timeout.com/images/105284354/image.jpg",
		"latitude": 48.873746,
		"longitude": 2.349929,
		"id_area": "Poissonnière"
	},
	{
		"id": "731911",
		"name": "Chez Mamane",
		"address": "27 rue des Cinq Diamants",
		"city": "Paris",
		"mainCategory": "Restaurants",
		"editorial_rating": 5,
		"description": "Le couscous parfait : parfumé et savoureux, abordable et généreux.",
		"to_website": "https://www.timeout.fr/paris/restaurants/chez-mamane",
		"image_url": "https://media.timeout.com/images/103670899/image.jpg",
		"latitude": 48.828596,
		"longitude": 2.35068,
		"id_area": "Butte-aux-Cailles"
	},
	{
		"id": "774041",
		"name": "Bidoche",
		"address": "7 rue Jean-Pierre Timbaud",
		"city": "Paris",
		"mainCategory": "Restaurants",
		"editorial_rating": 5,
		"description": "La boucherie-restaurant qui donne envie d’aller dans l’arrière boutique.",
		"to_website": "https://www.timeout.fr/paris/restaurants/bidoche",
		"image_url": "https://media.timeout.com/images/104693734/image.jpg",
		"latitude": 48.86508,
		"longitude": 2.367068,
		"id_area": "Folie-Méricourt"
	},
	{
		"id": "615860",
		"name": "Dixième Degré",
		"address": "19 rue Sainte-Marthe",
		"city": "Paris",
		"mainCategory": "Restaurants",
		"editorial_rating": 5,
		"description": "Une odeur de vacances (et de délicieux burgers) flotte autour de ce resto de la rue Sainte-Marthe...",
		"to_website": "https://www.timeout.fr/paris/restaurants/dixieme-degre",
		"image_url": "https://media.timeout.com/images/102848568/image.jpg",
		"latitude": 48.873995,
		"longitude": 2.371859,
		"id_area": "10e arrondissement"
	},
	{
		"id": "679485",
		"name": "Maison Issa",
		"address": "81 rue Olivier de Serres",
		"city": "Paris",
		"mainCategory": "Restaurants",
		"editorial_rating": 5,
		"description": "Sans doute le brunch libanais le moins cher de Paris",
		"to_website": "https://www.timeout.fr/paris/restaurants/maison-issa",
		"image_url": "https://media.timeout.com/images/103246461/image.jpg",
		"latitude": 48.83271,
		"longitude": 2.29409,
		"id_area": "15e arrondissement"
	},
	{
		"id": "759804",
		"name": "ERH Restaurant",
		"address": "11 rue Tiquetonne",
		"city": "Paris",
		"mainCategory": "Restaurants",
		"editorial_rating": 5,
		"description": "La combinaison parfaite entre gastronomie franco-japonaise et saké.",
		"to_website": "https://www.timeout.fr/paris/restaurants/erh-restaurant",
		"image_url": "https://media.timeout.com/images/103948554/image.jpg",
		"latitude": 48.864423,
		"longitude": 2.34905,
		"id_area": "1er arrondissement"
	},
	{
		"id": "502215",
		"name": "Sur Mer",
		"address": "53 rue de Lancry",
		"city": "Paris",
		"mainCategory": "Restaurants",
		"editorial_rating": 5,
		"description": "Petites assiettes iodées. Précis, délicat, voyageur.",
		"to_website": "https://www.timeout.fr/paris/restaurants/sur-mer",
		"image_url": "https://media.timeout.com/images/105083874/image.jpg",
		"latitude": 48.871757,
		"longitude": 2.362046,
		"id_area": "10e arrondissement"
	},
	{
		"id": "744536",
		"name": "Le Tea Time du Prince de Galles",
		"address": "33 avenue George V",
		"city": "Paris",
		"mainCategory": "Restaurants",
		"editorial_rating": 5,
		"description": "C'est toujours l'heure du thé avec les pâtisseries du chef Nicolas Paciello.",
		"to_website": "https://www.timeout.fr/paris/restaurants/le-tea-time-du-prince-de-galles",
		"image_url": "https://media.timeout.com/images/103790606/image.jpg",
		"latitude": 48.869143,
		"longitude": 2.300653,
		"id_area": "Champs-Elysées"
	},
	{
		"id": "132357",
		"name": "Paris New York (Strasbourg St Denis)",
		"address": "50 rue du Faubourg Saint-Denis",
		"city": "Paris",
		"mainCategory": "Restaurants",
		"editorial_rating": 5,
		"description": "Le FAT burger Strasbourg Saint-Denis style. Frites allumette au top, et le meilleur steak de France (et du monde ?!)",
		"to_website": "https://www.timeout.fr/paris/restaurants/paris-new-york-strasbourg-st-denis",
		"image_url": "https://media.timeout.com/images/104776135/image.jpg",
		"latitude": 48.871942,
		"longitude": 2.354047,
		"id_area": "Strasbourg-Saint-Denis"
	},
	{
		"id": "751630",
		"name": "Bijou",
		"address": "10 rue Dancourt",
		"city": "Paris",
		"mainCategory": "Restaurants",
		"editorial_rating": 5,
		"description": "Pizzas gastronomiques sur petite place bien parisienne.",
		"to_website": "https://www.timeout.fr/paris/restaurants/bijou",
		"image_url": "https://media.timeout.com/images/105284300/image.jpg",
		"latitude": 48.88311,
		"longitude": 2.341917,
		"id_area": "Pigalle"
	},
	{
		"id": "789167",
		"name": "Les Enfants du Marché",
		"address": "39 rue de Bretagne",
		"city": "Paris",
		"mainCategory": "Restaurants",
		"editorial_rating": 5,
		"description": "L’estaminet naturiste de Masahide Ikuta (ex-Table) au Marché des Enfants Rouges",
		"to_website": "https://www.timeout.fr/paris/restaurants/les-enfants-du-marche",
		"image_url": "https://media.timeout.com/images/105187076/image.jpg",
		"latitude": 48.862881,
		"longitude": 2.362026,
		"id_area": "3e arrondissement"
	},
	{
		"id": "703863",
		"name": "Koko",
		"address": "14 quai de la Loire",
		"city": "Paris",
		"mainCategory": "Restaurants",
		"editorial_rating": 5,
		"description": "Une jolie cantine sous dominante nipponne, planquée canal de l'Ourcq. On y boit aussi très bien en terrasse !",
		"to_website": "https://www.timeout.fr/paris/restaurants/koko",
		"image_url": "https://media.timeout.com/images/105284646/image.jpg",
		"latitude": 48.883815,
		"longitude": 2.371847,
		"id_area": "Jaurès"
	},
	{
		"id": "798584",
		"name": "Miam Miam Cool",
		"address": "41 rue de Provence",
		"city": "Paris",
		"mainCategory": "Restaurants",
		"editorial_rating": 5,
		"description": "Cantine sichuanaise fétiche ! Rien que le nom, déjà.",
		"to_website": "https://www.timeout.fr/paris/restaurants/miam-miam-cool",
		"image_url": "https://media.timeout.com/images/105238972/image.jpg",
		"latitude": 48.87412,
		"longitude": 2.335943,
		"id_area": "Chaussée-d'Antin"
	},
	{
		"id": "619038",
		"name": "Cannibale Café",
		"address": "93 rue Jean-Pierre Timbaud",
		"city": "Paris",
		"mainCategory": "Bars",
		"editorial_rating": 5,
		"description": "Serveurs cools, plats du jours maison, happy hour, planches pantagruéliques et DJ sets : tout est bon dans le cannibale",
		"to_website": "https://www.timeout.fr/paris/bars/cannibale-cafe",
		"image_url": "https://media.timeout.com/images/105202112/image.jpg",
		"latitude": 48.868388,
		"longitude": 2.379087,
		"id_area": "Folie-Méricourt"
	},
	{
		"id": "797946",
		"name": "Chilam",
		"address": "12 rue des Ecouffes",
		"city": "Paris",
		"mainCategory": "Restaurants",
		"editorial_rating": 5,
		"description": "Le meilleur mexicain de Paris, tout simplement.",
		"to_website": "https://www.timeout.fr/paris/restaurants/chilam",
		"image_url": "https://media.timeout.com/images/105232429/image.jpg",
		"latitude": 48.856705,
		"longitude": 2.358617,
		"id_area": "Le Marais"
	},
	{
		"id": "776574",
		"name": "Capitaine",
		"address": "4, impasse Guéménée",
		"city": "Paris",
		"mainCategory": "Restaurants",
		"editorial_rating": 4,
		"description": "Généreux repaire, entre table de quartier et semi-gastronomique",
		"to_website": "https://www.timeout.fr/paris/restaurants/capitaine",
		"image_url": "https://media.timeout.com/images/105034526/image.jpg",
		"latitude": 48.854717,
		"longitude": 2.365819,
		"id_area": "Le Marais"
	},
	{
		"id": "755927",
		"name": "Greenhouse",
		"address": "22 rue Crespin du Gast",
		"city": "Paris",
		"mainCategory": "Restaurants",
		"editorial_rating": 4,
		"description": "Kristin Frederick, la fondatrice du camion qui fume, se met au verre !",
		"to_website": "https://www.timeout.fr/paris/restaurants/greenhouse",
		"image_url": "https://media.timeout.com/images/103907301/image.jpg",
		"latitude": 48.865152,
		"longitude": 2.382265,
		"id_area": "11e arrondissement"
	},
	{
		"id": "739104",
		"name": "La guinguette d'Angèle",
		"address": "2 rue du Général Renault",
		"city": "Paris",
		"mainCategory": "Restaurants",
		"editorial_rating": 4,
		"description": "Angèle Ferreux-Maeght ouvre une deuxième guinguette dans le 11e arrondissement",
		"to_website": "https://www.timeout.fr/paris/restaurants/la-guinguette-dangele",
		"image_url": "https://media.timeout.com/images/103739234/image.jpg",
		"latitude": 48.861141,
		"longitude": 2.378194,
		"id_area": "Saint-Ambroise"
	},
	{
		"id": "701985",
		"name": "Le Lazare",
		"address": "Parvis de la gare Saint-Lazare / Rue Intérieure",
		"city": "Paris",
		"mainCategory": "Restaurants",
		"editorial_rating": 4,
		"description": "Une brasserie de gare trois étoiles",
		"to_website": "https://www.timeout.fr/paris/restaurants/le-lazare",
		"image_url": "https://media.timeout.com/images/103807841/image.jpg",
		"latitude": 48.874462,
		"longitude": 2.3267,
		"id_area": "La Madeleine"
	},
	{
		"id": "721314",
		"name": "La Cantine du Troquet Cherche Midi",
		"address": "79 rue du Cherche-Midi",
		"city": "Paris",
		"mainCategory": "Restaurants",
		"editorial_rating": 4,
		"description": "On ne dit jamais non à un bon parmentier de lièvre.",
		"to_website": "https://www.timeout.fr/paris/restaurants/la-cantine-du-troquet-cherche-midi",
		"image_url": "https://media.timeout.com/images/103595413/image.jpg",
		"latitude": 48.84743,
		"longitude": 2.323671,
		"id_area": "Rennes-Sèvres"
	},
	{
		"id": "744350",
		"name": "Le Tea Time du Bristol",
		"address": "112 rue du Faubourg Saint-Honoré",
		"city": "Paris",
		"mainCategory": "Restaurants",
		"editorial_rating": 4,
		"description": "De parfaits petits fours dans un cadre très parisien.",
		"to_website": "https://www.timeout.fr/paris/restaurants/le-tea-time-du-bristol",
		"image_url": "https://media.timeout.com/images/103790585/image.jpg",
		"latitude": 48.871723,
		"longitude": 2.314821,
		"id_area": "La Madeleine"
	},
	{
		"id": "773597",
		"name": "Bouillon Pigalle",
		"address": "22 boulevard de Clichy",
		"city": "Paris",
		"mainCategory": "Restaurants",
		"editorial_rating": 4,
		"description": "Le Paris d’antan ressuscité !",
		"to_website": "https://www.timeout.fr/paris/restaurants/bouillon-pigalle",
		"image_url": "https://media.timeout.com/images/104686273/image.jpg",
		"latitude": 48.882652,
		"longitude": 2.337464,
		"id_area": "9e arrondissement"
	},
	{
		"id": "776571",
		"name": "East Mamma (brunch)",
		"address": "33, rue du Faubourg-Saint Antoine",
		"city": "Paris",
		"mainCategory": "Restaurants",
		"editorial_rating": 4,
		"description": "Le brunch twisté à l’italienne",
		"to_website": "https://www.timeout.fr/paris/restaurants/east-mamma-brunch",
		"image_url": "https://media.timeout.com/images/105034485/image.jpg",
		"latitude": 48.852583,
		"longitude": 2.371935,
		"id_area": "Roquette"
	},
	{
		"id": "627512",
		"name": "Papacionu",
		"address": "7 rue Cadet",
		"city": "Paris",
		"mainCategory": "Restaurants",
		"editorial_rating": 4,
		"description": "Comme à Ajaccio !",
		"to_website": "https://www.timeout.fr/paris/restaurants/papacionu",
		"image_url": "https://media.timeout.com/images/103073095/image.jpg",
		"latitude": 48.87477,
		"longitude": 2.342706,
		"id_area": "Faubourg Montmartre"
	},
	{
		"id": "772591",
		"name": "Marcelle",
		"address": "22 rue Montmartre",
		"city": "Paris",
		"mainCategory": "Restaurants",
		"editorial_rating": 4,
		"description": "Brunch sain et grandes faims.",
		"to_website": "https://www.timeout.fr/paris/restaurants/marcelle",
		"image_url": "https://media.timeout.com/images/104671697/image.jpg",
		"latitude": 48.864102,
		"longitude": 2.345639,
		"id_area": "1er arrondissement"
	},
	{
		"id": "721501",
		"name": "L'Echappée Belle",
		"address": "7 rue Boulle",
		"city": "Paris",
		"mainCategory": "Restaurants",
		"editorial_rating": 4,
		"description": "Halal, détox et gastronomique.",
		"to_website": "https://www.timeout.fr/paris/restaurants/lechappee-belle",
		"image_url": "https://media.timeout.com/images/103647549/image.jpg",
		"latitude": 48.857087,
		"longitude": 2.371974,
		"id_area": "Roquette"
	},
	{
		"id": "641892",
		"name": "Juste",
		"address": "48 rue Laffitte",
		"city": "Paris",
		"mainCategory": "Restaurants",
		"editorial_rating": 4,
		"description": "Un resto-épicerie à prix honnête, où l'on remplit soi-même son seau de seafood !",
		"to_website": "https://www.timeout.fr/paris/restaurants/juste",
		"image_url": "https://media.timeout.com/images/102991286/image.jpg",
		"latitude": 48.874935,
		"longitude": 2.338605,
		"id_area": "Faubourg Montmartre"
	},
	{
		"id": "682139",
		"name": "Fragments",
		"address": "76 rue des Tournelles",
		"city": "Paris",
		"mainCategory": "Restaurants",
		"editorial_rating": 4,
		"description": "Attention, ceci n’est pas un café branché",
		"to_website": "https://www.timeout.fr/paris/restaurants/fragments",
		"image_url": "https://media.timeout.com/images/103263201/image.jpg",
		"latitude": 48.85797,
		"longitude": 2.367453,
		"id_area": "Le Marais"
	},
	{
		"id": "728148",
		"name": "So Nat",
		"address": "5 rue Bourdaloue",
		"city": "Paris",
		"mainCategory": "Restaurants",
		"editorial_rating": 4,
		"description": "La bonne cantine bio & végétarienne du 9e.",
		"to_website": "https://www.timeout.fr/paris/restaurants/so-nat",
		"image_url": "https://media.timeout.com/images/103635754/image.jpg",
		"latitude": 48.876438,
		"longitude": 2.338368,
		"id_area": "Chaussée-d'Antin"
	},
	{
		"id": "702637",
		"name": "Sept-Cinq Halles",
		"address": "26 rue Berger",
		"city": "Paris",
		"mainCategory": "Shopping",
		"editorial_rating": 4,
		"description": "Salon de thé et boutique, Sept-Cinq concept store made in Paris installe sa nouvelle adresse sous la Canopée.",
		"to_website": "https://www.timeout.fr/paris/shopping/sept-cinq-halles",
		"image_url": "https://media.timeout.com/images/103438417/image.jpg",
		"latitude": 48.86172,
		"longitude": 2.34439,
		"id_area": "Les Halles"
	},
	{
		"id": "2249",
		"name": "Ristorante Napoletano",
		"address": "18 avenue Franklin D. Roosevelt",
		"city": "Paris",
		"mainCategory": "Restaurants",
		"editorial_rating": 4,
		"description": "Pour beaucoup la meilleure pizza napolitaine de Paris... Inespéré, à quelques encablures des Champs-Elysées !",
		"to_website": "https://www.timeout.fr/paris/restaurants/ristorante-napoletano",
		"image_url": "https://media.timeout.com/images/105283634/image.jpg",
		"latitude": 48.871711,
		"longitude": 2.31019,
		"id_area": "8e arrondissement"
	},
	{
		"id": "799031",
		"name": "Le Pont de Yunnan",
		"address": "15 Rue Notre-Dame de Lorette",
		"city": "Paris",
		"mainCategory": "Restaurants",
		"editorial_rating": 4,
		"description": "Un ambassadeur de cette belle cuisine du sud-ouest de la Chine",
		"to_website": "https://www.timeout.fr/paris/restaurants/le-pont-de-yunnan-1",
		"image_url": "https://media.timeout.com/images/105242653/image.jpg",
		"latitude": 48.877665,
		"longitude": 2.338006,
		"id_area": "Saint-Georges"
	},
	{
		"id": "740236",
		"name": "Odette",
		"address": "25 rue du Pont Neuf",
		"city": "Paris",
		"mainCategory": "Restaurants",
		"editorial_rating": 4,
		"description": "Auberge contemporaine",
		"to_website": "https://www.timeout.fr/paris/restaurants/odette",
		"image_url": "https://media.timeout.com/images/103751120/image.jpg",
		"latitude": 48.860607,
		"longitude": 2.344515,
		"id_area": "Les Halles"
	},
	{
		"id": "788865",
		"name": "El Farès",
		"address": "79 rue Blomet",
		"city": "Paris",
		"mainCategory": "Restaurants",
		"editorial_rating": 4,
		"description": "Un pilier de la communauté libanaise depuis plus de vingt-cinq ans à Paris.",
		"to_website": "https://www.timeout.fr/paris/restaurants/el-fares-1",
		"image_url": "https://media.timeout.com/images/105160353/image.jpg",
		"latitude": 48.841408,
		"longitude": 2.30252,
		"id_area": "15e arrondissement"
	},
	{
		"id": "503519",
		"name": "Les Affranchis",
		"address": "5 rue Henry Monnier",
		"city": "Paris",
		"mainCategory": "Restaurants",
		"editorial_rating": 4,
		"description": "Direction le 9e où l'on découvre les Affranchis, un restaurant bien dans ses baskets qui revisite la tradition à l'aide de mets créatifs à l’accent du terroir.",
		"to_website": "https://www.timeout.fr/paris/restaurants/les-affranchis",
		"image_url": "https://media.timeout.com/images/102438169/image.jpg",
		"latitude": 48.87956,
		"longitude": 2.3368,
		"id_area": "Saint-Georges"
	},
	{
		"id": "789892",
		"name": "Lazare",
		"address": "Parvis et rue intérieure de la gare Saint-Lazare",
		"city": "Paris",
		"mainCategory": "Restaurants",
		"editorial_rating": 4,
		"description": "Le buffet de gare revu et corrigé par Eric Fréchon, chef 3 étoiles",
		"to_website": "https://www.timeout.fr/paris/restaurants/lazare-1",
		"image_url": "https://media.timeout.com/images/105167925/image.jpg",
		"latitude": 48.876126,
		"longitude": 2.325504,
		"id_area": "8e arrondissement"
	},
	{
		"id": "807209",
		"name": "Dishny",
		"address": "25 rue Cail",
		"city": "Paris",
		"mainCategory": "Restaurants",
		"editorial_rating": 4,
		"description": "Au cœur de Little India, le meilleur représentant de la cuisine de l'Inde du sud et du Sri Lanka. Ouvert 7/7 jours !",
		"to_website": "https://www.timeout.fr/paris/restaurants/dishny",
		"image_url": "https://media.timeout.com/images/105280258/image.jpg",
		"latitude": 48.882756,
		"longitude": 2.359267,
		"id_area": "Gare de l'Est"
	},
	{
		"id": "628834",
		"name": "Zicatela",
		"address": "8 rue Geoffroy-Marie",
		"city": "Paris",
		"mainCategory": "Restaurants",
		"editorial_rating": 4,
		"description": "Un petit restaurant mexicain chaleureux qui propose une cuisine authentique à des prix très abordables.",
		"to_website": "https://www.timeout.fr/paris/restaurants/zicatela",
		"image_url": "https://media.timeout.com/images/102972664/image.jpg",
		"latitude": 48.87345,
		"longitude": 2.343935,
		"id_area": "Faubourg Montmartre"
	},
	{
		"id": "119307",
		"name": "L'Ecailler du Bistrot",
		"address": "22 rue Paul Bert",
		"city": "Paris",
		"mainCategory": "Restaurants",
		"editorial_rating": 4,
		"description": "Belle sélection d’huîtres et fraîcheur au rendez-vous.",
		"to_website": "https://www.timeout.fr/paris/restaurants/lecailler-du-bistrot",
		"image_url": "https://media.timeout.com/images/100555659/image.jpg",
		"latitude": 48.85249,
		"longitude": 2.38497,
		"id_area": "Charonne"
	},
	{
		"id": "714449",
		"name": "Ima",
		"address": "39 quai de Valmy",
		"city": "Paris",
		"mainCategory": "Restaurants",
		"editorial_rating": 4,
		"description": "Cantine méditerranéenne d'inspiration israélienne",
		"to_website": "https://www.timeout.fr/paris/restaurants/ima",
		"image_url": "https://media.timeout.com/images/105289143/image.jpg",
		"latitude": 48.869296,
		"longitude": 2.366275,
		"id_area": "République"
	},
	{
		"id": "663549",
		"name": "Fric Frac",
		"address": "79 quai de Valmy",
		"city": "Paris",
		"mainCategory": "Restaurants",
		"editorial_rating": 4,
		"description": "Le temple du croque-monsieur",
		"to_website": "https://www.timeout.fr/paris/restaurants/fric-frac",
		"image_url": "https://media.timeout.com/images/103109913/image.jpg",
		"latitude": 48.872377,
		"longitude": 2.363883,
		"id_area": "République"
	},
	{
		"id": "754189",
		"name": "Dune",
		"address": "20 rue Keller",
		"city": "PARIS",
		"mainCategory": "Restaurants",
		"editorial_rating": 4,
		"description": "Une cantine « new american cuisine » qui fait vibrer les légumes de saison.",
		"to_website": "https://www.timeout.fr/paris/restaurants/dune",
		"image_url": "https://media.timeout.com/images/103919894/image.jpg",
		"latitude": 48.854858,
		"longitude": 2.376089,
		"id_area": "11e arrondissement"
	},
	{
		"id": "179321",
		"name": "Il Brigante",
		"address": "14 rue du Ruisseau",
		"city": "Paris",
		"mainCategory": "Restaurants",
		"editorial_rating": 4,
		"description": "Déco minimale pour pizzas maximales.",
		"to_website": "https://www.timeout.fr/paris/restaurants/il-brigante",
		"image_url": "https://media.timeout.com/images/105283622/image.jpg",
		"latitude": 48.89214,
		"longitude": 2.34,
		"id_area": "Mairie du 18e"
	},
	{
		"id": "727263",
		"name": "Biglove Caffè",
		"address": "30 rue Debelleyme",
		"city": "Paris",
		"mainCategory": "Restaurants",
		"editorial_rating": 4,
		"description": "4e adresse italienne dédiée au brunch pour la bande de Big Mamma.",
		"to_website": "https://www.timeout.fr/paris/restaurants/biglove-caffe",
		"image_url": "https://media.timeout.com/images/103629731/image.jpg",
		"latitude": 48.862024,
		"longitude": 2.363564,
		"id_area": "Le Marais"
	},
	{
		"id": "616596",
		"name": "La Tarte",
		"address": "5 rue de Damiette",
		"city": "Paris",
		"mainCategory": "Restaurants",
		"editorial_rating": 4,
		"description": "Salon de thé et pâte feuilletée dans le Sentier.",
		"to_website": "https://www.timeout.fr/paris/restaurants/la-tarte",
		"image_url": "https://media.timeout.com/images/103712762/image.jpg",
		"latitude": 48.86801,
		"longitude": 2.348241,
		"id_area": "Sentier"
	},
	{
		"id": "806467",
		"name": "Margús",
		"address": "1 rue des Prouvaires",
		"city": "Paris",
		"mainCategory": "Restaurants",
		"editorial_rating": 4,
		"description": "Le ventre de Paris aux accents Colombiens",
		"to_website": "https://www.timeout.fr/paris/restaurants/margus",
		"image_url": "https://media.timeout.com/images/105274992/image.jpg",
		"latitude": 48.861345,
		"longitude": 2.344003,
		"id_area": "Les Halles"
	},
	{
		"id": "762490",
		"name": "Fouquet's",
		"address": "99 avenue des Champs-Elysées",
		"city": "Paris",
		"mainCategory": "Restaurants",
		"editorial_rating": 4,
		"description": "Le Fouquet's nouvelle version.",
		"to_website": "https://www.timeout.fr/paris/restaurants/fouquets",
		"image_url": "https://media.timeout.com/images/103965199/image.jpg",
		"latitude": 48.872139,
		"longitude": 2.301228,
		"id_area": "8e arrondissement"
	},
	{
		"id": "733356",
		"name": "Brutos",
		"address": "5 rue du Général Renault",
		"city": "Paris",
		"mainCategory": "Restaurants",
		"editorial_rating": 4,
		"description": "Un barbecue sud-américain et du vin naturel : la force brute des papilles.",
		"to_website": "https://www.timeout.fr/paris/restaurants/brutos",
		"image_url": "https://media.timeout.com/images/105147363/image.jpg",
		"latitude": 48.861519,
		"longitude": 2.378129,
		"id_area": "Saint-Ambroise"
	},
	{
		"id": "753187",
		"name": "Fraîche",
		"address": "8 rue Vicq d'Azir",
		"city": "Paris",
		"mainCategory": "Restaurants",
		"editorial_rating": 4,
		"description": "Un bistrot qui revisite ses classiques de saison avec goût.",
		"to_website": "https://www.timeout.fr/paris/restaurants/fraiche",
		"image_url": "https://media.timeout.com/images/103883885/image.jpg",
		"latitude": 48.875815,
		"longitude": 2.369591,
		"id_area": "10e arrondissement"
	},
	{
		"id": "631824",
		"name": "Quinte",
		"address": "79 rue de la Tour",
		"city": "Paris",
		"mainCategory": "Restaurants",
		"editorial_rating": 4,
		"description": "Un restaurant très agréable où l'on se régale d'une délicieuse cuisine française, entre bistrot et gastro.",
		"to_website": "https://www.timeout.fr/paris/restaurants/quinte",
		"image_url": "https://media.timeout.com/images/102920443/image.jpg",
		"latitude": 48.861731,
		"longitude": 2.278046,
		"id_area": "16e arrondissement"
	},
	{
		"id": "665376",
		"name": "La Cave est restaurant",
		"address": "45-43 rue de Paris",
		"city": "Montreuil",
		"mainCategory": "Restaurants",
		"editorial_rating": 4,
		"description": "A Montreuil, une table gourmande pour les carnivores de tout poil.",
		"to_website": "https://www.timeout.fr/paris/restaurants/la-cave-est-restaurant",
		"image_url": "https://media.timeout.com/images/103124926/image.jpg",
		"latitude": 48.85766,
		"longitude": 2.43423,
		"id_area": "Paris et sa banlieue"
	},
	{
		"id": "670861",
		"name": "Secrets de famille",
		"address": "11 rue Blanche",
		"city": "Paris",
		"mainCategory": "Restaurants",
		"editorial_rating": 4,
		"description": "Des bons plats aux secrets bien gardés.",
		"to_website": "https://www.timeout.fr/paris/restaurants/secrets-de-famille",
		"image_url": "https://media.timeout.com/images/103171261/image.jpg",
		"latitude": 48.87829,
		"longitude": 2.33144,
		"id_area": "Saint-Georges"
	},
	{
		"id": "747060",
		"name": "Bleu Olive",
		"address": "184 rue de Grenelle",
		"city": "Paris",
		"mainCategory": "Restaurants",
		"editorial_rating": 4,
		"description": "Une jolie cantine bobo friendly en plein cœur du 7e.",
		"to_website": "https://www.timeout.fr/paris/restaurants/bleu-olive",
		"image_url": "https://media.timeout.com/images/103812599/image.jpg",
		"latitude": 48.857841,
		"longitude": 2.306208,
		"id_area": "7e arrondissement"
	},
	{
		"id": "757970",
		"name": "Café Cacahuète",
		"address": "1 rue Pierre Sémard",
		"city": "Paris",
		"mainCategory": "Restaurants",
		"editorial_rating": 4,
		"description": "Vous prendrez bien une pause bucolique dans le 9e au déjeuner ?",
		"to_website": "https://www.timeout.fr/paris/restaurants/cafe-cacahuete",
		"image_url": "https://media.timeout.com/images/103935521/image.jpg",
		"latitude": 48.877597,
		"longitude": 2.346906,
		"id_area": "9e arrondissement"
	},
	{
		"id": "807173",
		"name": "Chatime (Richelieu)",
		"address": "33 rue de Richelieu",
		"city": "Paris",
		"mainCategory": "Restaurants",
		"editorial_rating": 4,
		"description": "Une chaîne internationale, genre Starbucks du bubble tea",
		"to_website": "https://www.timeout.fr/paris/restaurants/chatime-richelieu",
		"image_url": "https://media.timeout.com/images/105279441/image.jpg",
		"latitude": 48.865335,
		"longitude": 2.336537,
		"id_area": "Louvre"
	},
	{
		"id": "763959",
		"name": "Cinq Fois Plus",
		"address": "170 rue Saint-Martin",
		"city": "Paris",
		"mainCategory": "Restaurants",
		"editorial_rating": 4,
		"description": "Toujours plus de piment avec monsieur Cheng.",
		"to_website": "https://www.timeout.fr/paris/restaurants/cinq-fois-plus",
		"image_url": "https://media.timeout.com/images/105283461/image.jpg",
		"latitude": 48.861891,
		"longitude": 2.35213,
		"id_area": "3e arrondissement"
	},
	{
		"id": "711076",
		"name": "La Compagnie du café",
		"address": "19 rue Notre-Dame-de-Lorette",
		"city": "Paris",
		"mainCategory": "Restaurants",
		"editorial_rating": 4,
		"description": "Brûlerie, coffee shop et cantine : le café parisien se déguste à toute heure et en toute occasion.",
		"to_website": "https://www.timeout.fr/paris/restaurants/la-compagnie-du-cafe",
		"image_url": "https://media.timeout.com/images/103968301/image.jpg",
		"latitude": 48.877824,
		"longitude": 2.337826,
		"id_area": "Saint-Georges"
	},
	{
		"id": "640928",
		"name": "Atelier Vivanda",
		"address": "18 rue Lauriston",
		"city": "Paris",
		"mainCategory": "Restaurants",
		"editorial_rating": 4,
		"description": "Un bistrot à la déco moderne et rustique pour se rassasier en bonne bidoche.",
		"to_website": "https://www.timeout.fr/paris/restaurants/atelier-vivanda",
		"image_url": "https://media.timeout.com/images/102980914/image.jpg",
		"latitude": 48.86601,
		"longitude": 2.28626,
		"id_area": "16e arrondissement"
	},
	{
		"id": "715707",
		"name": "Yikou",
		"address": "49 rue de L'Aqueduc",
		"city": "Paris",
		"mainCategory": "Restaurants",
		"editorial_rating": 4,
		"description": "Oubliez vos clichés sur les nouveaux restos à dim sum chichiteux qui souvent vident votre porte-monnaie sans remplir votre estomac et filez chez Yikou.",
		"to_website": "https://www.timeout.fr/paris/restaurants/yikou",
		"image_url": "https://media.timeout.com/images/103828023/image.jpg",
		"latitude": 48.883082,
		"longitude": 2.364984,
		"id_area": "10e arrondissement"
	},
	{
		"id": "799261",
		"name": "La Felicità",
		"address": "55, boulevard Vincent Auriol",
		"city": "Paris",
		"mainCategory": "Restaurants",
		"editorial_rating": 4,
		"description": "Le 7e giga opus de l'Empire Big Mamma, plus grand resto d’Europe !",
		"to_website": "https://www.timeout.fr/paris/restaurants/la-felicita",
		"image_url": "https://media.timeout.com/images/105244830/image.jpg",
		"latitude": 48.833487,
		"longitude": 2.371897,
		"id_area": "Quartier de la Gare"
	},
	{
		"id": "697687",
		"name": "Hakata Choten",
		"address": "58 rue des Petits Champs",
		"city": "Paris",
		"mainCategory": "Restaurants",
		"editorial_rating": 4,
		"description": "Ramen-toi !",
		"to_website": "https://www.timeout.fr/paris/restaurants/hakata-choten",
		"image_url": "https://media.timeout.com/images/105147591/image.jpg",
		"latitude": 48.867062,
		"longitude": 2.334842,
		"id_area": "1er arrondissement"
	},
	{
		"id": "759412",
		"name": "Alan Geaam",
		"address": "19 rue Lauriston",
		"city": "Paris",
		"mainCategory": "Restaurants",
		"editorial_rating": 4,
		"description": "Restaurant gastronomique français aux accents libanais",
		"to_website": "https://www.timeout.fr/paris/restaurants/alan-geaam",
		"image_url": "https://media.timeout.com/images/103946155/image.jpg",
		"latitude": 48.871433,
		"longitude": 2.292458,
		"id_area": "16e arrondissement"
	},
	{
		"id": "698016",
		"name": "Palissade",
		"address": "36 rue de Sambre-et-Meuse",
		"city": "Paris",
		"mainCategory": "Restaurants",
		"editorial_rating": 4,
		"description": "Un bar-restaurant audacieux, qui puise son inspiration dans la cuisine du monde entier. Ingrédients rares et saveurs punchy",
		"to_website": "https://www.timeout.fr/paris/restaurants/palissade",
		"image_url": "https://media.timeout.com/images/105202096/image.jpg",
		"latitude": 48.874578,
		"longitude": 2.372542,
		"id_area": "10e arrondissement"
	},
	{
		"id": "664895",
		"name": "Le Camion qui fume (restaurant)",
		"address": "168 rue Montmartre",
		"city": "Paris",
		"mainCategory": "Restaurants",
		"editorial_rating": 4,
		"description": "Le plus célèbre food truck parisien a trouvé son parking.",
		"to_website": "https://www.timeout.fr/paris/restaurants/le-camion-qui-fume-restaurant",
		"image_url": "https://media.timeout.com/images/103113796/image.jpg",
		"latitude": 48.870637,
		"longitude": 2.342834,
		"id_area": "Sentier"
	},
	{
		"id": "144383",
		"name": "La Pointe du Grouin",
		"address": "8 rue de Belzunce",
		"city": "Paris",
		"mainCategory": "Restaurants",
		"editorial_rating": 4,
		"description": "Une taverne bretonne vivante et goûtue au cœur de Paris.",
		"to_website": "https://www.timeout.fr/paris/restaurants/la-pointe-du-grouin",
		"image_url": "https://media.timeout.com/images/100675865/image.jpg",
		"latitude": 48.879372,
		"longitude": 2.352513,
		"id_area": "Gare du Nord"
	},
	{
		"id": "646213",
		"name": "Mad Eo",
		"address": "14 rue de Cadix",
		"city": "Paris",
		"mainCategory": "Restaurants",
		"editorial_rating": 4,
		"description": "En breton, \"Mad’eo\" signifie \"C’est bien fait !\"",
		"to_website": "https://www.timeout.fr/paris/restaurants/mad-eo",
		"image_url": "https://media.timeout.com/images/103008911/image.jpg",
		"latitude": 48.833814,
		"longitude": 2.289563,
		"id_area": "15 arrondissement"
	},
	{
		"id": "619551",
		"name": "Moncœur Belleville",
		"address": "1 rue des Envierges",
		"city": "Paris",
		"mainCategory": "Restaurants",
		"editorial_rating": 4,
		"description": "Loin, très haut sur les collines de Belleville, un héraut de l'authenticité. Avec surtout la plus belle terrasse de Paris !",
		"to_website": "https://www.timeout.fr/paris/restaurants/moncoeur-belleville",
		"image_url": "https://media.timeout.com/images/102878287/image.jpg",
		"latitude": 48.871595,
		"longitude": 2.385858,
		"id_area": "Belleville"
	},
	{
		"id": "807026",
		"name": "Jonjon's coconuts",
		"address": "99 rue de Réaumur",
		"city": "Paris",
		"mainCategory": "Restaurants",
		"editorial_rating": 4,
		"description": "Encore un concept à la noix ? Non : celle-ci est fraîche, et de coco !",
		"to_website": "https://www.timeout.fr/paris/restaurants/jonjons-coconuts",
		"image_url": "https://media.timeout.com/images/105278456/image.jpg",
		"latitude": 48.867585,
		"longitude": 2.345566,
		"id_area": "2e arrondissement"
	},
	{
		"id": "683033",
		"name": "Popine",
		"address": "108 boulevard de Menilmontant",
		"city": "Paris",
		"mainCategory": "Restaurants",
		"editorial_rating": 4,
		"description": "Chez Popine, on vient uniquement pour la pizza et puis basta.",
		"to_website": "https://www.timeout.fr/paris/restaurants/popine",
		"image_url": "https://media.timeout.com/images/105284367/image.jpg",
		"latitude": 48.865411,
		"longitude": 2.384743,
		"id_area": "Ménilmontant"
	},
	{
		"id": "749073",
		"name": "Le Ripailleur",
		"address": "9 rue du docteur Bauer",
		"city": "Saint-Ouen",
		"mainCategory": "Restaurants",
		"editorial_rating": 4,
		"description": "Qu’est ce qu’on ripaille bien à Saint-Ouen !",
		"to_website": "https://www.timeout.fr/paris/restaurants/le-ripailleur",
		"image_url": "https://media.timeout.com/images/103833972/image.jpg",
		"latitude": 48.912188,
		"longitude": 2.336284,
		"id_area": "Paris et sa banlieue"
	},
	{
		"id": "613321",
		"name": "Scaramouche",
		"address": "22 rue La Vieuville",
		"city": "Paris",
		"mainCategory": "Restaurants",
		"editorial_rating": 4,
		"description": "Idéalement située pour une pause avant de grimper jusqu'au Sacré-Cœur, ce glacier fait voyager les arômes de Provence dans la capitale.",
		"to_website": "https://www.timeout.fr/paris/restaurants/scaramouche",
		"image_url": "https://media.timeout.com/images/102823133/image.jpg",
		"latitude": 48.884695,
		"longitude": 2.340466,
		"id_area": "Abbesses"
	},
	{
		"id": "640895",
		"name": "Warung Makan",
		"address": "66-68 rue Rodier",
		"city": "Paris",
		"mainCategory": "Restaurants",
		"editorial_rating": 4,
		"description": "Le Warung Makan, un petit restaurant familial qui vous fait découvrir la cuisine singapourienne.",
		"to_website": "https://www.timeout.fr/paris/restaurants/warung-makan",
		"image_url": "https://media.timeout.com/images/102980964/image.jpg",
		"latitude": 48.880905,
		"longitude": 2.344332,
		"id_area": "Pigalle"
	},
	{
		"id": "796834",
		"name": "EP7",
		"address": "133, avenue de France",
		"city": "Paris",
		"mainCategory": "Restaurants",
		"editorial_rating": 4,
		"description": "Une cuisine au carré dans un cube protéiforme",
		"to_website": "https://www.timeout.fr/paris/restaurants/ep7",
		"image_url": "https://media.timeout.com/images/105223134/image.jpg",
		"latitude": 48.83205,
		"longitude": 2.375089,
		"id_area": "Quartier de la Gare"
	},
	{
		"id": "788904",
		"name": "L de Liza",
		"address": "14 rue de la Banque",
		"city": "Paris",
		"mainCategory": "Restaurants",
		"editorial_rating": 4,
		"description": "La boulangerie libanaise attenante au resto Liza. Un petit coin de Beyrouth à deux pas de la Bourse !",
		"to_website": "https://www.timeout.fr/paris/restaurants/l-de-liza",
		"image_url": "https://media.timeout.com/images/105160307/image.jpg",
		"latitude": 48.867582,
		"longitude": 2.341026,
		"id_area": "2e arrondissement"
	},
	{
		"id": "714319",
		"name": "Manko Paris",
		"address": "15 avenue Montaigne",
		"city": "Paris",
		"mainCategory": "Restaurants",
		"editorial_rating": 4,
		"description": "Niché en plein Triangle d'Or, le péruvien chicos du cookstar Gaston Acurio.",
		"to_website": "https://www.timeout.fr/paris/restaurants/manko-paris",
		"image_url": "https://media.timeout.com/images/105250648/image.jpg",
		"latitude": 48.865679,
		"longitude": 2.303144,
		"id_area": "Champs-Elysées"
	},
	{
		"id": "760282",
		"name": "Jah Jah By Le Tricycle",
		"address": "11 rue des Petites Ecuries",
		"city": "Paris",
		"mainCategory": "Restaurants",
		"editorial_rating": 4,
		"description": "Ambiance rastafari dans le premier restaurant afro-vegan de la capitale.",
		"to_website": "https://www.timeout.fr/paris/restaurants/jah-jah-by-le-tricycle",
		"image_url": "https://media.timeout.com/images/105286870/image.jpg",
		"latitude": 48.873084,
		"longitude": 2.353102,
		"id_area": "10e arrondissement"
	},
	{
		"id": "773196",
		"name": "HB5",
		"address": "5 rue Lucien Sampaix",
		"city": "Paris",
		"mainCategory": "Restaurants",
		"editorial_rating": 4,
		"description": "Le petit frère déjà grand du Holybelly",
		"to_website": "https://www.timeout.fr/paris/restaurants/hb5",
		"image_url": "https://media.timeout.com/images/104681467/image.jpg",
		"latitude": 48.871038,
		"longitude": 2.359616,
		"id_area": "10e arrondissement"
	},
	{
		"id": "691354",
		"name": "Pedzouille",
		"address": "66 rue du Faubourg Poissonnière",
		"city": "Paris",
		"mainCategory": "Restaurants",
		"editorial_rating": 4,
		"description": "Après un crowdfunding très plébiscité, Pedzouille a ouvert ses portes pour proposer aux Parisiens de bons produits du terroir français.",
		"to_website": "https://www.timeout.fr/paris/restaurants/pedzouille",
		"image_url": "https://media.timeout.com/images/103342203/image.jpg",
		"latitude": 48.875933,
		"longitude": 2.348416,
		"id_area": "Poissonnière"
	},
	{
		"id": "198733",
		"name": "Clint",
		"address": "174 rue de la Roquette",
		"city": "Paris",
		"mainCategory": "Restaurants",
		"editorial_rating": 4,
		"description": "Café-restaurant-concept store du haut de la rue de la Roquette",
		"to_website": "https://www.timeout.fr/paris/restaurants/clint",
		"image_url": "https://media.timeout.com/images/101480721/image.jpg",
		"latitude": 48.859175,
		"longitude": 2.386466,
		"id_area": "Roquette"
	},
	{
		"id": "705210",
		"name": "Tea Lichou",
		"address": "7 rue Broca",
		"city": "Paris",
		"mainCategory": "Restaurants",
		"editorial_rating": 4,
		"description": "Pour prendre le goûter et oublier la gravité.",
		"to_website": "https://www.timeout.fr/paris/restaurants/tea-lichou",
		"image_url": "https://media.timeout.com/images/103458212/image.jpg",
		"latitude": 48.838663,
		"longitude": 2.349166,
		"id_area": "5e arrondissement"
	},
	{
		"id": "1180",
		"name": "Brasserie Thoumieux",
		"address": "79 rue Saint-Dominique",
		"city": "Paris",
		"mainCategory": "Restaurants",
		"editorial_rating": 4,
		"description": "Un brunch, un brunch de roi même, un brunch de roi dépravé carrément...",
		"to_website": "https://www.timeout.fr/paris/restaurants/brasserie-thoumieux",
		"image_url": "https://media.timeout.com/images/105277813/image.jpg",
		"latitude": 48.859562,
		"longitude": 2.308696,
		"id_area": "7e arrondissement"
	},
	{
		"id": "487673",
		"name": "Le Pavillon des Canaux",
		"address": "39 quai de la Loire",
		"city": "Paris",
		"mainCategory": "Restaurants",
		"editorial_rating": 4,
		"description": "Joli café-restaurant au bord de l'eau.",
		"to_website": "https://www.timeout.fr/paris/restaurants/le-pavillon-des-canaux",
		"image_url": "https://media.timeout.com/images/102366995/image.jpg",
		"latitude": 48.887418,
		"longitude": 2.378706,
		"id_area": "Jaurès"
	},
	{
		"id": "776122",
		"name": "Boteco",
		"address": "48 rue de l’Echiquier",
		"city": "Paris",
		"mainCategory": "Bars",
		"editorial_rating": 4,
		"description": "Aller simple pour Rio",
		"to_website": "https://www.timeout.fr/paris/bars/boteco",
		"image_url": "https://media.timeout.com/images/105165304/image.jpg",
		"latitude": 48.872084,
		"longitude": 2.348098,
		"id_area": "10e arrondissement"
	},
	{
		"id": "668822",
		"name": "Gustave",
		"address": "21 rue Henry Monnier",
		"city": "Paris",
		"mainCategory": "Restaurants",
		"editorial_rating": 4,
		"description": "Gustave, deux claps coupe-faim.",
		"to_website": "https://www.timeout.fr/paris/restaurants/gustave",
		"image_url": "https://media.timeout.com/images/103147201/image.jpg",
		"latitude": 48.880303,
		"longitude": 2.337159,
		"id_area": "Saint-Georges"
	},
	{
		"id": "7243",
		"name": "Pho 14",
		"address": "129 avenue de Choisy",
		"city": "Paris",
		"mainCategory": "Restaurants",
		"editorial_rating": 4,
		"description": "Délicieux pho, service affable et efficace et prix très doux pour cette indémodable cantine vietnamienne",
		"to_website": "https://www.timeout.fr/paris/restaurant/pho-14",
		"image_url": "https://media.timeout.com/images/100552687/image.jpg",
		"latitude": 48.826602,
		"longitude": 2.359178,
		"id_area": "Place d'Italie"
	},
	{
		"id": "5979",
		"name": "Au Bon Coin (18e)",
		"address": "49 rue des Cloÿs",
		"city": "Paris",
		"mainCategory": "Restaurants",
		"editorial_rating": 4,
		"description": "Le bistrot de quartier où l’on se sent comme chez papy et mamie.",
		"to_website": "https://www.timeout.fr/paris/restaurants/au-bon-coin-18e",
		"image_url": "https://media.timeout.com/images/105147522/image.jpg",
		"latitude": 48.893106,
		"longitude": 2.337744,
		"id_area": "18e arrondissement"
	},
	{
		"id": "140815",
		"name": "Maison de la culture arménienne",
		"address": "17 rue Bleue",
		"city": "Paris",
		"mainCategory": "Restaurants",
		"editorial_rating": 4,
		"description": "Cuisine familiale pleine d'âme.",
		"to_website": "https://www.timeout.fr/paris/restaurants/maison-de-la-culture-armenienne",
		"image_url": "https://media.timeout.com/images/103657559/image.jpg",
		"latitude": 48.875794,
		"longitude": 2.346819,
		"id_area": "Faubourg Montmartre"
	},
	{
		"id": "738139",
		"name": "Bambou",
		"address": "23 rue des Jeuneurs",
		"city": "Paris",
		"mainCategory": "Restaurants",
		"editorial_rating": 4,
		"description": "Un restaurant thaï qui vaut d'abord pour son fantastique décor en style rétro et colonial.",
		"to_website": "https://www.timeout.fr/paris/restaurants/bambou",
		"image_url": "https://media.timeout.com/images/103737665/image.jpg",
		"latitude": 48.869315,
		"longitude": 2.344969,
		"id_area": "Sentier"
	},
	{
		"id": "653652",
		"name": "Chez Ann",
		"address": "rue de l’Echiquier",
		"city": "Paris",
		"mainCategory": "Restaurants",
		"editorial_rating": 4,
		"description": "Dim sums dodus, savoureux et bio !",
		"to_website": "https://www.timeout.fr/paris/restaurants/chez-ann",
		"image_url": "https://media.timeout.com/images/103657406/image.jpg",
		"latitude": 48.871393,
		"longitude": 2.350277,
		"id_area": "Grands Boulevards"
	},
	{
		"id": "245697",
		"name": "Clown Bar",
		"address": "114 rue Amelot",
		"city": "Paris",
		"mainCategory": "Restaurants",
		"editorial_rating": 4,
		"description": "Artistes en cuisine, pirouettes dans l’assiette… Un bistronomique à deux pas du Cirque d’hiver",
		"to_website": "https://www.timeout.fr/paris/restaurants/clown-bar",
		"image_url": "https://media.timeout.com/images/105275698/image.jpg",
		"latitude": 48.863604,
		"longitude": 2.367231,
		"id_area": "Folie-Méricourt"
	},
	{
		"id": "606292",
		"name": "Ellsworth",
		"address": "34 rue de Richelieu",
		"city": "Paris",
		"mainCategory": "Restaurants",
		"editorial_rating": 4,
		"description": "Le néo-bistrot le plus stylé des alentours.",
		"to_website": "https://www.timeout.fr/paris/restaurants/ellsworth",
		"image_url": "https://media.timeout.com/images/105278315/image.jpg",
		"latitude": 48.86575,
		"longitude": 2.336968,
		"id_area": "Louvre"
	},
	{
		"id": "764345",
		"name": "Salatim",
		"address": "15 rue des Jeuneurs",
		"city": "Paris",
		"mainCategory": "Restaurants",
		"editorial_rating": 4,
		"description": "Tel-Aviv(a) Salatim.",
		"to_website": "https://www.timeout.fr/paris/restaurants/salatim",
		"image_url": "https://media.timeout.com/images/104035098/image.jpg",
		"latitude": 48.869092,
		"longitude": 2.345959,
		"id_area": "2e arrondissement"
	},
	{
		"id": "691439",
		"name": "Grand Cœur",
		"address": "41 rue du Temple",
		"city": "Paris",
		"mainCategory": "Restaurants",
		"editorial_rating": 4,
		"description": "Cuisine palpitante.",
		"to_website": "https://www.timeout.fr/paris/restaurants/grand-coeur",
		"image_url": "https://media.timeout.com/images/103343603/image.jpg",
		"latitude": 48.859587,
		"longitude": 2.353942,
		"id_area": "Le Marais"
	},
	{
		"id": "2481",
		"name": "Le Dauphin",
		"address": "131 avenue Parmentier",
		"city": "Paris",
		"mainCategory": "Restaurants",
		"editorial_rating": 4,
		"description": "Le resto-labo immaculé d’Iñaki Aizpitarte, toque basque qui fait joujou à base de tapas (ré)créatifs !",
		"to_website": "https://www.timeout.fr/paris/restaurants/le-dauphin",
		"image_url": "https://media.timeout.com/images/100015051/image.jpg",
		"latitude": 48.869458,
		"longitude": 2.371242,
		"id_area": "Folie-Méricourt"
	},
	{
		"id": "10823",
		"name": "Supernature (cantine)",
		"address": "12 rue de Trévise",
		"city": "Paris",
		"mainCategory": "Restaurants",
		"editorial_rating": 4,
		"description": "Cantine tendance veggie, à deux pas du resto du même nom",
		"to_website": "https://www.timeout.fr/paris/restaurants/supernature-cantine",
		"image_url": "https://media.timeout.com/images/100021927/image.jpg",
		"latitude": 48.873411,
		"longitude": 2.345209,
		"id_area": "Faubourg Montmartre"
	},
	{
		"id": "787069",
		"name": "Les Saveurs du Sichuan",
		"address": "34 rue Friant",
		"city": "Paris",
		"mainCategory": "Restaurants",
		"editorial_rating": 4,
		"description": "Gastronomie sichuanaise fine et haute en couleurs !",
		"to_website": "https://www.timeout.fr/paris/restaurants/les-saveurs-du-sichuan-1",
		"image_url": "https://media.timeout.com/images/105157354/image.jpg",
		"latitude": 48.824817,
		"longitude": 2.323534,
		"id_area": "14e arrondissement"
	},
	{
		"id": "702477",
		"name": "The Hood",
		"address": "80 rue Jean-Pierre Timbaud",
		"city": "Paris",
		"mainCategory": "Restaurants",
		"editorial_rating": 4,
		"description": "Pas 100 % original mais 100 % bons produits, le coffee shop The Hood confirme la tendance du café de spécialité et du petit déj' brooklynois à Paris.",
		"to_website": "https://www.timeout.fr/paris/restaurants/the-hood",
		"image_url": "https://media.timeout.com/images/105214960/image.jpg",
		"latitude": 48.867386,
		"longitude": 2.376329,
		"id_area": "Folie-Méricourt"
	},
	{
		"id": "229169",
		"name": "La Parenthèse",
		"address": "20 rue Richer",
		"city": "Paris",
		"mainCategory": "Restaurants",
		"editorial_rating": 4,
		"description": "Une cantine dédiée au grilled cheese, cousin ricain de notre croque-monsieur national",
		"to_website": "https://www.timeout.fr/paris/restaurants/la-parenthese-1",
		"image_url": "https://media.timeout.com/images/105223925/image.jpg",
		"latitude": 48.87405,
		"longitude": 2.34628,
		"id_area": "Faubourg Montmartre"
	},
	{
		"id": "385811",
		"name": "Libshop",
		"address": "12 rue Julie Daubié",
		"city": "Paris",
		"mainCategory": "Restaurants",
		"editorial_rating": 4,
		"description": "Cantine libanaise dépoussiérée, nichée dans le nouveau 13e",
		"to_website": "https://www.timeout.fr/paris/restaurants/libshop",
		"image_url": "https://media.timeout.com/images/102033613/image.jpg",
		"latitude": 48.826756,
		"longitude": 2.379013,
		"id_area": "13e arrondissement"
	},
	{
		"id": "740551",
		"name": "Disneyland Hotel",
		"address": "Rue de la Marnière",
		"city": "Chessy",
		"mainCategory": "Hôtels",
		"editorial_rating": 4,
		"description": "Le plus féérique des hôtels Disney",
		"to_website": "https://www.timeout.fr/paris/hotels/disneyland-hotel",
		"image_url": "https://media.timeout.com/images/103752752/image.jpg",
		"latitude": 48.872401,
		"longitude": 2.785141,
		"id_area": "Où"
	},
	{
		"id": "780221",
		"name": "Roco",
		"address": "1 Rue Guillaume Tell",
		"city": "Paris",
		"mainCategory": "Restaurants",
		"editorial_rating": 4,
		"description": "Napoli à Pereire !",
		"to_website": "https://www.timeout.fr/paris/restaurants/roco",
		"image_url": "https://media.timeout.com/images/105284140/image.jpg",
		"latitude": 48.88385,
		"longitude": 2.292869,
		"id_area": "Ternes"
	},